stop_id,name,mode,lat,lon,betweenness
metro_105_1,Government Estate,metro,13.07004362,80.2735029,1.163167480858544
metro_105_2,Government Estate,metro,13.07004362,80.2735029,1.1542195382283378
metro_SGE_G_1,A2-Near Omandurar Multispeciality Hospital ,metro,13.0701119,80.2735251,1.1352241989488898
metro_SGE|0109,Government Estate,metro,13.07004362,80.2735029,1.1346437258328792
metro_SGU_G_1,A-Near Guindy Railway Station,metro,13.0090566,80.2123341,0.2721385130293049
metro_SCC_G_5,A3- Near Central Railway Station,metro,13.0822734,80.2744965,0.23106062990567952
suburban_GDY_P_2,GUINDY,suburban,13.00828343,80.21249612,0.20554201235324765
suburban_MBM_P_2,MAMBALAM,suburban,13.04150247,80.22877073,0.14067080884635133
suburban_MS_P_10,CHENNAI EGMORE,suburban,13.07825171,80.26103334,0.1352502041740076
suburban_TBM_P_1,TAMBARAM,suburban,12.92534508,80.11891922,0.13391800307974075
suburban_BBQ_P_1,BASIN BRIDGE JN.,suburban,13.102079,80.271368,0.1096930106016404
bus_392,M.K.B.NAGAR,bus,12.549663,80.143925,0.10717979226757587
bus_FcOkCcps,KANNIGAPURAM RAMALINGA TEMPLE,bus,13.10905,80.26718,0.10337703329813866
bus_1109bc12b06ed3657014242012d64c6f,M.K.B. Nagar,bus,13.12386,80.25927,0.09949723118443415
bus_NEW_kodungaiyur_t_n_e_b_office_2706761242,KODUNGAIYUR T N E B OFFICE,bus,12.549663,80.143925,0.09878653966413542
bus_8f4c6c9d5d7f0a1a6f869fcbdcfba125,Vyasarpadi Ashok Pillar,bus,13.11443,80.26568,0.09815783977767603
bus_2824863a80a3e46022467092f455c14c,Sathiya Moorthy Nagar,bus,13.12273,80.26577,0.09804235550870627
bus_393,SATHIYAMOORTHY NAGAR,bus,12.549663,80.143925,0.09519709463532121
bus_PSjGjQXK,PARK STATION,bus,13.0815,80.27334,0.08546203112048717
bus_gzZgDndk,M.G.R.CENTRAL R.S,bus,13.08202,80.2756,0.08395603011894551
bus_duRJdiSr,GEORGE TOWN PADMANABA THEATRE,bus,13.10219,80.27425,0.08320233440064628
metro_SGE_G_4,B1-Near Kalaivanar Arangam,metro,13.0689044,80.2722294,0.08293354118563066
suburban_MAS_P_13,CHENNAI CENTRAL SUBURBAN ,suburban,13.083037,80.27479,0.08127500893100904
suburban_PER_P_1,PERAMBUR,suburban,13.107617,80.246783,0.07180631958147647
bus_NEW_1761233614862,MOOLAKOTHALAM,bus,12.549663,80.143925,0.06561317753590465
bus_0f36126c34ccc1093f6209f18b290e24,M.G.R.CENTRAL R.S,bus,13.08206,80.27638,0.06559904560661939
bus_NEW_1761234638802,VALLALAR NAGAR,bus,12.549663,80.143925,0.06549769326693487
bus_NEW_1761233660668,GEORGE TOWN PADMANABA THEATRE,bus,12.549663,80.143925,0.06538220899796511
suburban_PRGL_P_1,PERUNGALATTUR,suburban,12.904692,80.09451,0.06528523391250919
bus_NEW_1761233701450,GEORGE TOWN THIRUPALLI STREET,bus,12.549663,80.143925,0.06526672472899533
bus_NEW_1761233713617,SOWCARPET ELEPHANT GATE,bus,12.549663,80.143925,0.06515124046002556
bus_NEW_1761233724359,BLUE STAR,bus,12.549663,80.143925,0.0650357561910558
bus_NEW_1761233567095,VYASARPADI ASHOK PILLAR,bus,12.549663,80.143925,0.06468220445632332
suburban_VDR_P_1,VANDALUR,suburban,12.890356,80.083928,0.06275820341555423
bus_TShNRujB,M.G.R.CENTRAL OR RAJIV GANDHI GOVERNMENT GENERAL HOSPITAL,bus,13.08181,80.27669,0.061677372645447405
bus_953,MUDICHUR,bus,12.549663,80.143925,0.059967696068536656
suburban_TNP_P_2,TONDIARPET,suburban,13.126956,80.281541,0.05955060495185418
bus_yhXmuUeN,PARK STATION,bus,13.08135,80.2732,0.05740188365577984
metro_201_1,Chennai Central Metro,metro,13.0817804,80.27354903,0.05624850541069595
metro_202_2,Egmore Metro,metro,13.07877935,80.26110401,0.056061108970886196
suburban_TVT_P_2,TIRUVOTTIYUR,suburban,13.159532,80.296353,0.05371914237994343
suburban_MPK_P_2,CHENNAI PARK,suburban,13.080734135583,80.272890301421,0.05366052829591179
suburban_VLK_P_1,VILLIVAKKAM,suburban,13.110224,80.209119,0.05284365097846181
suburban_VLK_P_2,VILLIVAKKAM,suburban,13.110224,80.209119,0.04988471570720319
suburban_PER_P_2,PERAMBUR,suburban,13.107617,80.246783,0.04983931403978338
bus_ojqTFFWy,TAMBARAM WEST BUS STAND,bus,12.92761,80.11867,0.04739174825975049
suburban_KOK_P_4,KORUKKUPET,suburban,13.120671,80.278682,0.047237670549222066
bus_965,MANNIVAKKAM RD.JN.,bus,12.549663,80.143925,0.04573216111830703
bus_ejMjPdTH,TAMBARAM WEST BUS STAND,bus,12.92759,80.11886,0.04471598355158985
suburban_ABU_P_1,AMBATTUR,suburban,13.114245,80.153109,0.04100760197599727
bus_RabBrvbh,KULAKKARAI BUS STOP,bus,12.92552,80.10431,0.04004184567443457
bus_TikfrWrm,LAKSHMIPURAM,bus,12.92531,80.10095,0.0399263614054648
bus_jgCiOeaN,TAMBARAM VETTRI NAGAR,bus,12.92323,80.09707,0.03981087713649503
bus_ZUUFaTkv,BHARATHI NAGAR TAMBARAM,bus,12.92159,80.09272,0.03888700298473685
bus_hlYcHDiv,GANDHI NAGAR,bus,12.92091,80.08995,0.03877151871576708
bus_pHbSfQWg,OLD PERUNGALATHUR SRI PADMAVATHI MAHAL,bus,12.91972,80.08709,0.03865603444679731
bus_wBZvskGC,OLD PERUNGALATHUR OR AMBEDKAR STATUE,bus,12.91907,80.08383,0.03854055017782754
bus_WzJZybAt,OLD PERUNGALATHUR PARWATI NAGAR,bus,12.9183,80.08174,0.03842506590885777
bus_KbKyxild,PERUNGALATHUR MADANAPURAM,bus,12.91547,80.07735,0.038309581639888
suburban_TI_P_1,TIRUNINRAVUR,suburban,13.124014,80.026914,0.037781548099789175
suburban_WST_P_2,WASHERMANPET,suburban,13.108552,80.283183,0.03722612035167484
bus_823,ANDARKUPPAM,bus,12.549663,80.143925,0.03679172031709196
metro_202_1,Egmore Metro,metro,13.07877935,80.26110401,0.03526374620483605
bus_DgYBMgPg,KOLAPAKKAM JUNCTION,bus,12.87054,80.10688,0.03514277133056791
bus_VEiYdotb,RAMANUJAR ENGG COLLEGE OR BALAJI PLYTECHNIC,bus,12.86726,80.11548,0.034796318523658595
bus_AhWKwjTz,VENGAMBAKKAM ROAD JUNCTION,bus,12.8628,80.12687,0.03468083425468882
bus_179,TAMBARAM WEST,bus,12.549663,80.143925,0.034394829117120655
bus_qflzswAf,POONAMALLEE B.T,bus,13.05177,80.09496,0.03426109449115334
bus_fFHpEWYG,BASIN BRIDGE RAILWAY STATION,bus,13.10177,80.2706,0.03385631718336865
bus_89,KCBT - KILAMBAKKAM,bus,12.549663,80.143925,0.03355868567520566
bus_LTfflVxG,TAGORE ENGINEERING COLLEGE RATHINAMANGALAM,bus,12.8604,80.13145,0.03289202731825696
bus_qRJySzaf,RATHINAMANGALAM,bus,12.85798,80.13378,0.0328424747600658
bus_SEVBrkvc,IRUMBULIYUR,bus,12.9164,80.10589,0.0322894516214107
bus_VkUBejwv,THIRUMUDIVAKKAM SIDCO,bus,12.97013,80.08972,0.03223870839153309
bus_81b9cef790f71d996d6dbb4a27031701,Kundrathur Natham Murugan Temple,bus,12.98215,80.0894,0.03212322412256332
bus_391,SIDCO,bus,12.549663,80.143925,0.031925807768631645
bus_ABufINme,AMBATTUR POLICE STATION,bus,13.09514,80.16364,0.03184345541457122
suburban_MSF_P_2,CHENNAI FORT,suburban,13.082692231983,80.282178372145,0.03153635542724951
bus_HeRuYpNs,KANDIGAI,bus,12.85096,80.14058,0.030345207617675486
bus_bYtHLndm,VARADHARAJAPURAM RAYAPPA NAGAR,bus,12.92337,80.07727,0.029597575738822008
bus_knSDhEIY,VARADHARAJAPURAM KISHKINDA,bus,12.93934,80.08312,0.029482091469852235
bus_IUBOlCKA,ERUMAIYUR,bus,12.95251,80.08806,0.029425705372886714
bus_qGnNRXVR,ANNA NAGAR WEST DEPOT,bus,13.09402,80.19874,0.029222196848339543
suburban_AVD_P_2,AVADI,suburban,13.118147,80.101785,0.028342616183805562
bus_ogOCBKAf,AVADI B.T,bus,13.11977,80.10203,0.028311319206372487
bus_QDIpIlEK,GUINDY RAILWAY STATION,bus,13.00821,80.21336,0.028307054448824687
bus_188,THIRUVANMIYUR,bus,12.549663,80.143925,0.02827677531946861
bus_bfpcjsiF,VANDALUR GATE,bus,12.89289,80.08505,0.028235674922230437
bus_lmZJehpq,THIRUMANGALAM,bus,13.09094,80.19857,0.028016131846878463
suburban_TI_P_2,TIRUNINRAVUR,suburban,13.124014,80.026914,0.02732781406922155
metro_201_2,Chennai Central Metro,metro,13.0817804,80.27354903,0.02724048612340028
bus_paIawFeA,AMBATTUR I.T PARK,bus,13.0948,80.16979,0.026951374667187566
bus_mRKfPREJ,MELAKOTTAIYUR,bus,12.8456,80.14896,0.02693994486830682
metro_160_1,Chennai Central Metro,metro,13.0817804,80.27354903,0.02683440167581808
bus_628192049c6fce49259bb032bbf55330,VANDALUR GATE,bus,12.89235,80.08594,0.026779995693290218
bus_gzTQJVMW,VANDALUR ZOO,bus,12.88057,80.08085,0.0266422115120061
suburban_VOC_P_3,VOC NAGAR,suburban,13.140246,80.287614,0.02654704805610373
suburban_VOC_P_1,VOC NAGAR,suburban,13.140246,80.287614,0.02654704805610373
bus_UgzfanVk,KUNDRATHUR B.T,bus,12.99718,80.09641,0.026276325162449956
bus_lhSIyIfw,MAMBAKKAM,bus,12.82772,80.16501,0.02613155498551841
suburban_RPM_P_2,ROYAPURAM,suburban,13.104138,80.293418,0.02608291165216547
bus_slfxTuih,TAMBARAM EAST B.T,bus,12.92334,80.12049,0.026066766621439214
bus_674,MOOLAKADAI,bus,12.549663,80.143925,0.02590452753925146
bus_CKorGRkE,KADAPERI,bus,12.93338,80.1247,0.025791142248215528
suburban_MSB_P_4,CHENNAI BEACH JN.,suburban,13.092295629904,80.291892662644,0.025564959770610872
suburban_STM_P_2,ST. THOMAS MOUNT,suburban,12.99484802,80.19882424,0.025442788403169315
suburban_CMP_P_2,CHROMEPET,suburban,12.95127604,80.14084709,0.02534893326456493
bus_iYTiOTOT,POONDI BAZAAR,bus,12.92306,80.12559,0.025319928712780392
bus_pPKqPUVW,EAST TAMBARAM CONVENT,bus,12.92283,80.13078,0.025260672774746154
bus_BxmxkKGC,TAMBARAM EAST,bus,12.92323,80.12062,0.025115262494954594
bus_TzBLFSKE,THIRUNEERMALAI 3,bus,12.96542,80.11365,0.024629713668639752
bus_vkArqzKY,KOLAPAKKAM ANNA NAGAR,bus,12.87157,80.10148,0.02458277567116314
bus_LOVJkcJs,TIRUNEERMALAI SERVICE ROAD,bus,12.95858,80.11865,0.024572526656597714
bus_vcQVCkqQ,THIRUNEERMALAI 2,bus,12.9622,80.11337,0.02451422939966998
bus_BpAiVnps,M.G.R.KOYAMBEDU B.T,bus,13.06944,80.20549,0.02449719449576702
bus_678,VYASARPADI,bus,12.549663,80.143925,0.023925926359879262
bus_sHqmRcRD,KUNDRATHUR MURUGAN TEMPLE,bus,12.98731,80.09339,0.023873531991843108
bus_830,M.F.L,bus,12.549663,80.143925,0.023831470685783455
suburban_WCN_P_1,WIMCO NAGAR,suburban,13.181026,80.306223,0.023627912740035985
bus_OeZVKJdr,MILITARY CAMP MAMBAKKAM,bus,12.80875,80.18626,0.023312247679622578
bus_sPGYwoyj,PUDUPAKKAM ANJANEYAR TEMPLE,bus,12.80611,80.18938,0.023196763410652806
bus_XUTqNKWc,PUDUPAKKAM,bus,12.79951,80.19818,0.023081279141683033
bus_CbcrfuAf,VANDALUR ZOO,bus,12.88094,80.0806,0.023075230029085035
bus_JvovwZNp,BUTTERFLY COMPANY PUDUPAKKAM,bus,12.79218,80.21739,0.02296579487271326
suburban_CGL_P_1,CHENGALPATTU JN.,suburban,12.69411,79.98084,0.022956997837376644
bus_zEOiVqLB,SAMIYAR PANNAI,bus,12.79029,80.22064,0.022850310603743488
bus_kKKRBhFF,AYURVEDA ASHRAMAM,bus,13.18469,80.19148,0.022787018767587618
bus_WdOwNGhj,REDHILLS MARKET,bus,13.1893,80.18771,0.022671534498617845
bus_LhQSpAzy,MAHALAKSHMI NAGAR,bus,12.92267,80.14727,0.022640201173593052
bus_xfbmoJHP,REDHILLS BUS TERMINUS,bus,13.19288,80.18441,0.02255605022964807
bus_qPtpgxic,PERUNGALATTUR,bus,12.90644,80.09621,0.022527164551490474
suburban_ABU_P_2,AMBATTUR,suburban,13.114245,80.153109,0.022179210363972867
bus_pwpCkicC,CAMP ROAD JUNCTION SELAIYUR,bus,12.92257,80.14384,0.021956812723631324
bus_FyIjwLBj,KOLATHUR SENTHIL NAGAR,bus,13.12362,80.20255,0.021480650647265946
bus_xnXFAboh,KANDIGAI,bus,12.85124,80.14017,0.02132452592564325
bus_NjRgIRup,REDHILLS BUS TERMINUS,bus,13.19305,80.18437,0.020924685179600624
bus_twlwLPZj,REDHILLS MARKET,bus,13.18965,80.18745,0.020809200910630855
suburban_GDY_P_3,GUINDY,suburban,13.00828343,80.21249612,0.020765226097723972
bus_NTCwKKsF,RATHINAMANGALAM,bus,12.85796,80.13369,0.020483873770888693
bus_101,KUNDRATHUR B.T,bus,12.549663,80.143925,0.020456271901253372
bus_JKUqFAhf,TAGORE ENGINEERING COLLEGE RATHINAMANGALAM,bus,12.86081,80.13091,0.02036838950191892
bus_sKtQEUzZ,BALAJI NAGAR THIRUNINDRAVOOR,bus,13.13842,80.03869,0.02029081284333598
bus_tkWZZFES,VENGAMBAKKAM ROAD JUNCTION,bus,12.86273,80.12684,0.020202327761890494
bus_acVCzwtl,THIRUNINRAVUR SRI LAKSHMI THEATRE,bus,13.12629,80.03098,0.02019515172879763
bus_QHulIYnO,PALAVEDU NASHIK NAGAR,bus,13.14206,80.03793,0.020175328574366207
bus_pzcCDVmZ,MADHAVARAM ROUNTANA,bus,13.14506,80.21935,0.02007711866172076
bus_829,ERNAVOOR GATE,bus,12.549663,80.143925,0.020068962519990446
bus_wpHpdxFs,PALAVEDU SRI PATHI NAGAR,bus,13.14507,80.03803,0.020059844305396434
bus_GpOUDfXM,KOLAPAKKAM JUNCTION,bus,12.87044,80.10697,0.02002096908355464
bus_TCBUGaZf,PUZHAL CYCLE SHOP,bus,13.15316,80.20823,0.019961634392750987
bus_IkeqCtDY,MELAPPEDU,bus,13.15144,80.03953,0.01994436003642666
bus_KcvPUxQg,PUZHAL JAIL,bus,13.16431,80.20236,0.019856267335378996
bus_HaEOaLMB,PAKKAM JUNCTION,bus,13.1552,80.0371,0.019828875767456892
bus_fdwLSfsa,KEELAKOTTAIYUR,bus,12.83765,80.15519,0.019800763709835908
bus_ePrpofUw,KAVANGARAI,bus,13.17049,80.19929,0.019740783066409223
bus_QUMnpJQp,THATHANKUPPAM,bus,13.11822,80.19832,0.019658205320641102
bus_NFInfBeu,SRI NALLAGHU POLYTECHNIC COLLEGE,bus,13.1784,80.19484,0.01962529879743945
bus_THcpliIL,PAKKAM NEW COLONY,bus,13.15964,80.03391,0.019597907229517347
bus_fikrodNW,KILAKONDAIYUR KESAVA CROSS ROAD,bus,13.16463,80.03145,0.019482422960547575
bus_a60416f62c82beffcd32ae2e7cff0ff4,PORUR TOLL PLAZA,bus,13.04396,80.14957,0.019397556066611144
bus_TgAaXvqD,KAVANUR,bus,13.18093,80.02943,0.019366938691577806
bus_SwPLBeCY,KOMAKKAMBEDU,bus,13.19416,80.02954,0.019251454422608033
bus_BlnSxBAr,PUZHAL CAMP,bus,13.1583,80.20378,0.0192484943557368
bus_MqGZxRIW,VYASARPADI,bus,13.11158,80.26504,0.01920932734184681
bus_WlkKexEs,PUZHAL CYCLE SHOP,bus,13.15342,80.20838,0.019184142691047176
bus_rQoGPwMA,INDIRA NAGAR PAZHANTHANDALAM,bus,13.20182,80.0294,0.01913597015363826
bus_oXDhDxhT,AYURVEDA ASHRAMAM,bus,13.18454,80.19165,0.019050944690190794
bus_AiDSpgcp,THAMARAIPAKKAM,bus,13.21114,80.02933,0.019020485884668488
suburban_UPM_P_1,URAPPAKKAM,suburban,12.867348,80.071818,0.018992542143645333
bus_AKEMZMhk,SRI NALLAGHU POLYTECHNIC COLLEGE,bus,13.17878,80.19492,0.01893546042122102
bus_MwLdaJul,WHEELS INDIA ROAD JUNCTION,bus,13.1011,80.19454,0.01890628601368169
bus_yfISbYOh,THAMARAIPAKKAM JUNCTION,bus,13.22033,80.02855,0.01890500161569872
bus_aCcokpIU,KAVANGARAI,bus,13.17051,80.19954,0.018819976152251252
bus_hFISFuCO,EAST TAMBARAM CONVENT,bus,12.92275,80.13106,0.01869058636910636
bus_qzuHypgA,RETTERI JUNCTION,bus,13.12993,80.21357,0.01865811912984239
bus_TQhrUKrf,POONDI BAZAAR,bus,12.92295,80.12577,0.01857510210013659
bus_vXPGJwVk,RETTERI AMBEDKAR NAGAR,bus,13.12597,80.20683,0.018468481204535127
bus_MmmkWPfy,THIRUMUDIVAKKAM,bus,12.96644,80.10766,0.018452545810973494
bus_twMezfOU,VYASARPADI AMBEDKAR COLLEGE,bus,13.11835,80.25937,0.01836670017510272
bus_IvQQZbJW,ERUKANCHERRY,bus,13.12459,80.24711,0.0183270964131595
bus_1016,M.F.L,bus,12.549663,80.143925,0.018219074990890458
bus_lkujKSJT,VYASARPADI SHARMA NAGAR,bus,13.1205,80.25445,0.01803134473049053
bus_yaKWBgLg,ERUKKANCHERI TOLL GATE,bus,13.12207,80.25101,0.017915860461520758
suburban_ENR_P_1,ENNORE,suburban,13.217914,80.321748,0.01789394351445639
suburban_MCPK_P_2,CHEPAUK,suburban,13.062746,80.280611,0.01786534514640865
suburban_MCPT_P_2,CHINTADARIPET,suburban,13.074676,80.273723,0.017861574368928494
bus_MyzUerZz,PUZHAL CAMP,bus,13.15804,80.20399,0.01779096114094136
bus_WFZVQzrl,GUINDY M K N SALAI,bus,13.00722,80.20983,0.01766684717320599
bus_lOyAoICg,KOLAPAKKAM ANNA NAGAR,bus,12.8714,80.10185,0.017250617378021662
bus_207,VALLALAR NAGAR,bus,12.549663,80.143925,0.016983839654581806
bus_e49dc36f040217a6f60e9fb1fb381467,KUNDRATHUR B.T,bus,12.99742,80.09631,0.016928980308861342
bus_AmahvgQB,UDHYAM THEATER OR ASHOK PILLAR,bus,13.03507,80.21092,0.016667673866907814
bus_9f4acc4466c56eac4be3ec3e857fa768,Kundrathur Lake View Road,bus,13.00818,80.09134,0.016664712809210707
bus_FZfLSowG,VAZHUTHALAMBEDU ROAD JUNCTION,bus,12.96783,80.10263,0.01664311574103853
suburban_AIPP_P_3,ATTIPATTU PUDU NAGAR,suburban,13.2492,80.300049,0.016642469891857057
bus_pzScocJN,MAMBAKKAM,bus,12.82766,80.16496,0.0165821177216069
bus_2b38dac5c0b528ddc3681bbee2300f92,Chikkarayapuram,bus,13.01451,80.09382,0.01654922854024093
bus_khOlLZay,MAMBAKKAM SAMATHUVAPURAM,bus,12.83256,80.15949,0.016466633452637127
bus_e4a7d488361c9ab243e713b3d966ab6d,Malayambakkam Stalin Nagar,bus,13.02901,80.09033,0.016433744271271162
bus_TDvESTZN,MADHAVARAM ROUNTANA,bus,13.14396,80.22016,0.016351510537336564
bus_CDXhVrrJ,KEELAKOTTAIYUR,bus,12.83735,80.15521,0.016351149183667358
bus_EmkugZPX,ANNA NAGAR WEST DEPOT,bus,13.09378,80.19855,0.016338227700580292
bus_TvGyfQSI,KOLATHUR SENTHIL NAGAR,bus,13.12353,80.2021,0.01630063551677861
bus_106,MADURAVOYAL MARKET,bus,12.549663,80.143925,0.01628819912356629
bus_YYKDBDRS,MAMBAKKAM VIT UNIVERSITY,bus,12.84016,80.15287,0.016235664914697585
bus_New369,POONAMALLEE THIDEERKUPPAM(THOPPU),bus,13.03775,80.08713,0.016235493481553204
bus_KCMgfriT,KOLATHUR R.T.O OFFICE,bus,13.13591,80.21657,0.01612054199939702
bus_yHCBRtBd,MELAKOTTAIYUR,bus,12.84567,80.14885,0.016120180645727816
bus_ZijVddwt,PORUR TOLL PLAZA,bus,13.04348,80.14974,0.016112491073697294
bus_25e6b4396f922765ee21590523afeec3,PORUR TOLL PLAZA,bus,13.04317,80.14972,0.016016104305774798
bus_716,AMBEDKAR NAGAR,bus,12.549663,80.143925,0.015811524379818385
bus_RzNLGwXH,PAGULMEDU,bus,13.23781,80.0203,0.015768224938240618
bus_rDSiGFpR,SIMSON OR PERIYAR BRIDGE,bus,13.0705,80.27391,0.01571888823445672
suburban_GI_P_1,GUDUVANCHERI,suburban,12.844676,80.0568,0.015609867138028784
bus_ALhaazBT,PERUNGALATHUR,bus,12.9064,80.09645,0.015427340525199729
bus_AszcEtOu,KOYAMBEDU SCHOOL,bus,13.07393,80.20034,0.015418620003399892
bus_New422,PAZHANTHANDALAM TRAFFIC AID POST,bus,12.96054,80.09005,0.015403511615350626
bus_QuhVipGo,PAZHANTHANDALAM,bus,12.96009,80.09002,0.015372704592119929
bus_677,MADHAVARAM,bus,12.549663,80.143925,0.01536065373204833
suburban_KTPM_P_2,KOTTURPURAM,suburban,13.014867,80.248379,0.015273884118403915
bus_UfaDzlyU,VENGAL BAZAR,bus,13.25192,80.01448,0.015075319324421988
bus_e44b2c412f079a1736c6be4ce76a9746,MADHA ENGINEERING COLLEGE,bus,12.99593,80.0872,0.015028689226493619
suburban_KTBR_P_2,KASTURBA NAGAR,suburban,13.006361,80.247697,0.014838484704753954
suburban_AVD_P_1,AVADI,suburban,13.118147,80.101785,0.014751064763206635
bus_WOOyqinT,CHELLAMMAL COLLEGE,bus,13.01227,80.22078,0.014711620412470752
metro_203_1,Nehru Park,metro,13.07892912,80.25087459,0.014660165488286876
bus_KjgVoxgR,WHEELS INDIA ROAD JUNCTION,bus,13.10144,80.19439,0.014578170067124977
bus_xjlhzjUh,MADAMBAKKAM TEMPLE,bus,12.89864,80.16165,0.014516216879688671
bus_NGAodVTg,RETTERI AMBEDKAR NAGAR,bus,13.12636,80.20706,0.014505583171468713
bus_LhgNVAOU,DUNLOP,bus,13.10618,80.1524,0.014378407858737487
bus_HdBHspFM,SHOLAVARAM,bus,13.23954,80.16093,0.014361392072051523
bus_bOiSLYGO,BUTT ROAD,bus,13.00733,80.19714,0.014325916260544951
bus_zBPHjWVd,SAMIYAR PANNAI,bus,12.79006,80.22086,0.014319489970500119
bus_nIakFMcq,AMBATTUR INDUSTRIAL ESTATE B.T,bus,13.09947,80.17017,0.014318473992289214
bus_YGbVmztp,MANNIVAKKAM SCHOOL,bus,12.89135,80.06945,0.014282232253599973
bus_NQaaFyOm,PALLAVAN SALAI,bus,13.07548,80.2763,0.014253306973044994
bus_hApOmpAO,MEDAVAKKAM VIJAYA NAGARAM,bus,12.91902,80.17891,0.014224078914342873
bus_aNlaxeLS,BUTTERFLY COMPANY,bus,12.79209,80.2174,0.014204005701530346
bus_fJdABIlw,KOLATHUR R.T.O OFFICE,bus,13.13606,80.21634,0.014193783289819772
bus_155,REGAL,bus,12.549663,80.143925,0.014181315214542736
bus_pFQacbfu,PUDUPAKKAM ANJANEYAR TEMPLE,bus,12.80604,80.18935,0.014028851411334638
metro_STE_G_3,B1-Near SIET college,metro,13.0365411,80.2464942,0.014018433608582775
bus_VYHZxBYO,SRIPERUMBUDUR BUS TERMINUS,bus,12.96665,79.94485,0.014006480995320814
bus_AUmOMGnp,IRUMBULIYUR,bus,12.91667,80.10665,0.01398078487262991
bus_DLdtTvFi,COLLECTOR NAGAR,bus,13.08778,80.18885,0.013972685681176732
bus_DhBIcFJB,NAZARATHPET,bus,13.04745,80.08078,0.01397136265179675
bus_ljcnUKfU,SITHALAPAKKAM KANNI TEMPLE,bus,12.89406,80.18018,0.01395978115449654
bus_AOtPxxNt,MILITARY CAMP MAMBAKKAM,bus,12.80863,80.1863,0.013913367142364866
bus_OMhVSsxv,THERADI,bus,12.99884,80.09681,0.013832114410348333
bus_rYcBAOGh,ANAIKATTU,bus,13.22894,80.02672,0.01375603100016142
metro_107_1,Thousand Lights,metro,13.05936791,80.25947454,0.013726509209482683
bus_HajxumVd,KAMARAJAPURAM CAMP ROAD,bus,12.92328,80.15407,0.013675435471778996
suburban_PWU_P_1,PARANUR,suburban,12.729959,79.983702,0.013623592013999174
bus_sZNeRfOC,SEMBAKKAM,bus,12.9234,80.16002,0.013559951202809223
bus_ZFFevgPB,S.I.V.E.T,bus,12.92091,80.16784,0.013444466933839452
bus_BCwVkMhO,kelambakkam POLICE STATION,bus,12.78534,80.22002,0.013431777043945279
bus_NCSBLEus,MONDIYAMAN NAGAR,bus,13.19882,80.17908,0.013420363297796441
bus_UgpyjFML,VIRUGAMBAKKAM,bus,13.04643,80.1901,0.013370327395988061
bus_qehlKNkR,SANTHOSAPURAM,bus,12.91982,80.17126,0.013328982664869678
metro_108_1,AG-DMS,metro,13.04594039,80.24853668,0.013318727416938398
bus_wuAzVrCW,MAMBAKKAM VIT UNIVERSITY,bus,12.8404,80.15281,0.013315993408860308
bus_wcUGKfLa,THIRUPORUR BUS STAND,bus,12.7222,80.1873,0.013290031605481529
bus_ywuGpANM,CHROMEPET,bus,12.95165,80.14052,0.013265702700505403
suburban_MCPT_P_3,CHINTADARIPET,suburban,13.074676,80.273723,0.013262317671161596
suburban_SKL_P_1,SINGAPERUMALKOIL,suburban,12.761822,80.000699,0.013208821590098582
bus_610,GANDHI STATUE,bus,12.549663,80.143925,0.013185057087544742
bus_681,M.M.B.T,bus,12.549663,80.143925,0.013184247984726555
bus_CgMBzfIg,ELAVANTHANGAL,bus,12.78062,80.21742,0.013140837294819222
suburban_MCPT_P_4,CHINTADARIPET,suburban,13.074676,80.273723,0.013122478685546692
bus_OXvlrfnG,CHENGANMAL ROAD JUNCTION,bus,12.7708,80.21319,0.013025353025849451
metro_110_1,Nandanam,metro,13.03112925,80.24035987,0.013003343027525633
bus_uXKxCjNA,RAMAPURAM MILITARY QUATERS,bus,13.01077,80.19563,0.01298722746014116
bus_TCqyxHhF,ANNA NAGAR C.P.W.D QUARTERS,bus,13.08225,80.19865,0.012942880142493667
suburban_KOK_P_3,KORUKKUPET,suburban,13.120671,80.278682,0.012927863458770303
bus_ZecyfkGE,PUDUPAKKAM,bus,12.79963,80.19786,0.012901921222138128
suburban_MCPK_P_3,CHEPAUK,suburban,13.062746,80.280611,0.012870456474250674
bus_XuFnwsQn,PANIMALAR COLLEGE,bus,13.04689,80.07565,0.01285634472503663
bus_192,THIRUVOTRIYUR TEMPLE,bus,12.549663,80.143925,0.012846782609213812
metro_204_1,Kilpauk,metro,13.07734478,80.24221008,0.012830931765673573
suburban_GDY_2,B1,suburban,13.00872563,80.21248617,0.012826318093268195
suburban_MCPT_P_1,CHINTADARIPET,suburban,13.074676,80.273723,0.012801349382330041
bus_893,SHARMA NAGAR,bus,12.549663,80.143925,0.012731691468851314
suburban_WCN_P_2,WIMCO NAGAR,suburban,13.181026,80.306223,0.012691961513184212
bus_OPXtWBVk,SAAMIYAR MADAM,bus,13.04684,80.21891,0.012643976904157854
bus_fbbca115761a230c7a7858c48a09e6c0,LIBERTY,bus,13.05393,80.22789,0.012627662872441568
suburban_MCPK_P_4,CHEPAUK,suburban,13.062746,80.280611,0.012614407811488643
bus_MEUYJwAC,THIRUMUDIVAKKAM SIDCO,bus,12.96928,80.0903,0.012560260764243585
bus_UVDfwOgc,SHOLAVARAM BDO OFFICE,bus,13.24286,80.15972,0.012533302415460856
suburban_MCPT,CHINTADARIPET,suburban,13.074676,80.273723,0.012520937026067918
suburban_MCPK,CHEPAUK,suburban,13.062746,80.280611,0.01250769293716659
bus_GpnhEWuy,CHELLAMMAL COLLEGE,bus,13.01191,80.222,0.012503174750562758
suburban_MCPK_P_1,CHEPAUK,suburban,13.062746,80.280611,0.0124742016333576
bus_62c3fb1f34f2944829e6d8c758e2890e,PONMALLE DEPOT,bus,13.04945,80.08832,0.012471651139726299
suburban_MCPT_1,A1,suburban,13.07373246,80.27374883,0.012468148535765855
bus_rxrORjnb,KARANODAI,bus,13.24703,80.15762,0.012442950809368301
suburban_KAVM_P_1,KATHIVAKKAM,suburban,13.204528,80.316968,0.012422559414272337
suburban_MKK_P_2,KODAMBAKKAM,suburban,13.05278802,80.2308973,0.01229710636960746
bus_tzYrVhKO,Alwar Thiru Nagar,bus,13.04427,80.18492,0.012292145203925553
bus_LbKosGpD,MOUNT ROAD SHANTHI THEATRE,bus,13.06723,80.27048,0.012282824604381877
metro_109_1,Teynampet,metro,13.03782035,80.24640937,0.01225259539966511
bus_106522c6295142ffd6e20dfbb8469880,VIJAYA NALLUR,bus,13.2215,80.16764,0.012231467554428077
bus_RyPegcUV,PERUNGALATHUR IRANIYAMMAN TEMPLE,bus,12.89739,80.08938,0.012219706463648406
bus_YctaenCe,KESAVARDHINI,bus,13.04193,80.17795,0.012176660934955782
bus_szgsvNJG,PERUNGALATGUR LAKE VIEW STOP,bus,12.909,80.09834,0.012149993314657105
suburban_INDR_P_2,INDRA NAGAR,suburban,12.997514,80.249234,0.012131068558665928
bus_vyQyYYqJ,MADHAVARAM BUS DEPOT,bus,13.13206,80.23713,0.012018047121441949
metro_205_1,Pachaiyappa's College,metro,13.0759689,80.23344467,0.012002677601577336
bus_fMrlznIn,NANDAMBAKKAM TRADE CENTRE,bus,13.01675,80.18922,0.011991783570286414
bus_BaMKWhPW,KUNDRATHUR LAKE VIEW ROAD,bus,13.00769,80.09181,0.011975608874903228
bus_OpgRCgWV,ALANDUR METRO R.S,bus,13.00389,80.20086,0.011967520255830966
bus_209,VANDALUR GATE,bus,12.549663,80.143925,0.011916688520392201
bus_fjevhefZ,KANAGACHATHIRAM,bus,13.13654,80.23102,0.01189140924358877
bus_CrOFTJlw,NAZARATHPET,bus,13.04727,80.08053,0.01187931711735849
bus_nzTRQfUi,KATTUPAKKAM,bus,13.0409,80.12789,0.011879051128357987
bus_gViLrCgA,MOGAPPAIR GOLDEN FLATS,bus,13.08816,80.17802,0.011836319202340718
bus_SOVcCDqR,AMBATTUR CANARA BANK,bus,13.11038,80.15224,0.011823499429911202
bus_AUBTKFbY,KALPANA LAMPS MADHAVARAM,bus,13.13885,80.22791,0.011775924974618997
bus_QdWOxWia,WAVIN,bus,13.08855,80.17199,0.011720834933370946
metro_101_2,Washermenpet,metro,13.10657326,80.28076413,0.011700798724607418
bus_hxSTJhOz,PALLAVAN SALAI,bus,13.07542,80.2764,0.011631312663821294
bus_iZfXNAue,KELAMBAKKAM VIJAYA SHANTHI LOTUS POND,bus,12.75977,80.20885,0.011542153354864464
bus_uhUmvvRs,ALANDUR METRO R.S,bus,13.00422,80.20115,0.011493063930709072
metro_SCC_G_2,A2- Near Rajiv Gandhi Hospital,metro,13.0815127,80.2747051,0.011469513053707896
suburban_AIP_P_1,ATTIPPATTU,suburban,13.261438,80.289153,0.011458935925990066
bus_715,POOCHIATHIPEDU,bus,12.549663,80.143925,0.011437313467205659
bus_OWTXMrGR,MANNIVAKKAM,bus,12.89375,80.06484,0.011365716073912908
suburban_NPKM_P_1,NANDIYAMPAKKAM,suburban,13.2687,80.276032,0.011350484352887043
metro_103_2,High Court,metro,13.08786263,80.28533057,0.011300185070943863
bus_FdzHSswJ,KARASANGAL,bus,12.89438,80.04695,0.011292674741402112
bus_KCAssTym,PATTUNOOL CHATRAM,bus,12.95631,79.94275,0.011266007308904905
bus_mSXRukCc,RAMACHANDRA HOSPITAL,bus,13.03661,80.14306,0.011260707535276967
suburban_MJR_P_1,MINJUR,suburban,13.282025,80.259837,0.011254494223337382
bus_CqPWXNIf,THAIYUR KOMAN NAGAR,bus,12.75668,80.20719,0.011253442682440036
bus_FCeDiZsN,MADHAVARAM ROUNTANA,bus,13.145,80.22003,0.011181588824645374
bus_nvtqczOj,PADAPAI M.G.R NAGAR,bus,12.89199,80.04028,0.011177190472432342
bus_nPkrzCty,K.K NAGAR NAGATHAMMAN TEMPLE,bus,13.0441,80.20895,0.011138583078523143
metro_102_2,Mannadi,metro,13.09589736,80.28599516,0.011086983343615053
bus_New122,KALAVAKKAM TEA STALL,bus,12.74182,80.19744,0.011080216278985377
bus_mLBQtksd,ANNA UNIVERSITY,bus,13.00748,80.23669,0.011031201310775684
bus_PXPVuGmP,MAHALAKSHMI NAGAR,bus,12.92259,80.14738,0.010969156352710547
bus_dbPZeeiE,VADAPALANI THIRU NAGAR,bus,13.05741,80.21142,0.010938574899322701
bus_VCDwRKse,GANDHI NAGAR,bus,13.09712,80.21722,0.010902183751176136
bus_YpVxAvQG,AMBATTUR TELEPHONE EXCHANGE,bus,13.10149,80.16232,0.010870442861659087
metro_216_2,Alandur Metro,metro,13.00372197,80.20154361,0.010863541024059224
bus_XFpFKXXh,THIRUNEERMALAI,bus,12.9593,80.11723,0.010849081250209858
metro_SCC_G_3,B1- Towards Egmore road,metro,13.0813602,80.2733365,0.01084688463911166
bus_iPNesxKP,SIMSON,bus,13.07106,80.27409,0.010809548976695168
bus_WRCkhCoY,DOG CANNAL,bus,13.15282,80.28834,0.010788950677124645
bus_PcvuCqyL,SEMILIVARAM CHENGALIAMMAN TEMPLE,bus,13.23531,80.16246,0.010742377976817291
bus_OKtVrzTN,TIRUVOTTIYUR RAILWAY GATE OR KCP,bus,13.15677,80.29556,0.010739175994902884
bus_zuhYkREh,THIRUNEERMALAI 2,bus,12.96214,80.11338,0.010733596981240087
bus_YmkUpvHU,SAIDAPET COURT / SAIDAPET DEPOT,bus,13.01393,80.22643,0.01072927849731029
metro_148_2,Tondiarpet,metro,13.12398868,80.28817191,0.010708945095619989
bus_jcExlqwL,VALASARAVAKKAM,bus,13.04106,80.1737,0.010707889421453119
bus_fQRLOpha,CAMP ROAD JUNCTION SELAIYUR,bus,12.92249,80.14367,0.010637240223643967
metro_215_2,Ekkattuthangal,metro,13.01710693,80.20568784,0.010634916718075264
metro_214_2,Ashok Nagar,metro,13.03534195,80.21063651,0.010631750855195894
bus_CfDISmMN,VIJAYA NALLUR,bus,13.22109,80.16796,0.010623799776869678
bus_hZwGajtf,THIRUNEERMALAI 3,bus,12.96537,80.11364,0.010618112712270315
metro_149_2,Thiyagaraya College,metro,13.11561642,80.28446928,0.010576187538556447
bus_kVeKzKrW,BURMA COLONY,bus,12.94813,80.1161,0.010511637061661413
bus_HNejbQWJ,KARANODAI,bus,13.24706,80.1576,0.010477626074345459
bus_cCSIoIah,COLLECTOR NAGAR T S KRISHNA NAGAR,bus,13.088,80.18344,0.010454183688532018
bus_mhgPTzcZ,KATHIPARA,bus,13.00741,80.20166,0.01042967528451092
bus_794,VEERAPURAM,bus,12.549663,80.143925,0.010396228134087221
bus_KDdzRmow,POONAMALLEE KALLARAI,bus,13.04935,80.1056,0.010384709397598186
bus_QOMpmplr,SHOLAVARAM BDO OFFICE,bus,13.24256,80.15986,0.01038315487638694
bus_nsbHlbAq,DLF OR L AND T,bus,13.02371,80.17878,0.010358679404907
bus_RZCadHVt,MEDAVAKKAM KOOT ROAD,bus,12.92067,80.18505,0.010352872245149705
bus_QpprBOSr,AMBATTUR O.T B.T,bus,13.11967,80.14995,0.010350891138262838
bus_PNUwxzRj,KUMANANCHAVADI,bus,13.04393,80.11529,0.010329181643228288
bus_XiXLaJEL,CHROMEPET,bus,12.95152,80.14003,0.010270720077065434
bus_FoxIDeQY,HINDU COLLEGE,bus,13.11915,80.0738,0.01026085895670302
bus_MhGEPaGW,CHITHALAPAKKAM TNHB,bus,12.89102,80.17572,0.010245576856981712
bus_793,VENGAL CROSS ROAD,bus,12.549663,80.143925,0.01024326880862533
bus_mTfuYAvy,RAMAPURAM MOON LIGHT,bus,13.02531,80.17585,0.010243195135937227
bus_fmQEzQWV,MMDA COLONY ROAD JUNCTION,bus,13.06516,80.21122,0.010230074135332116
bus_SgmzKmGa,PADIANALLUR,bus,13.20418,80.17524,0.010161862700990587
bus_RCkelXPh,JAI GARDEN VALASARAVAKKAM,bus,13.0388,80.16872,0.010080079143285424
bus_ygaPVVOX,MONDIYAMAN NAGAR,bus,13.19902,80.17913,0.010046378432020817
bus_qKeCDDXI,ANNA UNIVERSITY,bus,13.00822,80.23346,0.010045298939649661
metro_214_1,Ashok Nagar,metro,13.03534195,80.21063651,0.010011214878567648
bus_bGxnPBxb,AVADI METTUPALAYAM,bus,13.0813,80.09571,0.00996357720466173
bus_mTKelVZs,NOOTHENCHERI,bus,12.89779,80.16714,0.009946974942817908
bus_hLEWSLqw,PERAMBUR RAILWAY STATION,bus,13.1081,80.24479,0.009894840391915866
bus_141,PERAMBUR B.T,bus,12.549663,80.143925,0.009860599648039647
suburban_MTCN_P_2,TIRUVALLIKENI,suburban,13.055982,80.28049,0.009853723686818703
bus_286,KEELKATTALAI,bus,12.549663,80.143925,0.009815679095800231
suburban_KAVM_P_2,KATHIVAKKAM,suburban,13.204528,80.316968,0.009768529258406083
bus_FfdGxPiD,VAZHUTHALAMBEDU ROAD JUNCTION,bus,12.96774,80.10294,0.009684092079397121
bus_HGjkimBc,VADAPALANI,bus,13.05023,80.21351,0.009672619912195512
bus_hTBkjNzq,PUZHAL JAIL,bus,13.16387,80.20271,0.009635784909356142
suburban_PEW_P_1,PERAMBUR LOCO WORKS,suburban,13.108325,80.225518,0.00963170791415788
bus_juEdhOMs,KAMARAJ NAGAR,bus,13.10704,80.09418,0.00961373583001204
bus_xunvufHj,DON BOSCO MATRICULATION SCHOOL KARANODAI,bus,13.25289,80.15541,0.009596528525152111
bus_New95,ERANKUPPAM,bus,13.2692,80.0339,0.009588497320401965
metro_216_1,Alandur Metro,metro,13.00372197,80.20154361,0.009587155655865612
suburban_PON_P_2,PONNERI,suburban,13.332605,80.19901,0.009577154576196784
metro_215_1,Ekkattuthangal,metro,13.01710693,80.20568784,0.009564577000714471
bus_UmISPPJO,KOVILPADAGAI ROAD JUNCTION,bus,13.1331,80.10318,0.009562820115053671
bus_ngNzeSzC,PATTABIRAM,bus,13.12091,80.06494,0.009547765355514428
bus_uxBjVsKf,kelambakkam POLICE STATION,bus,12.78537,80.21995,0.009547733736299186
bus_sKXIofXa,IKKADU WATER TANK OR TEACHERS COLONY,bus,13.14887,79.91385,0.009516518195932975
bus_bYNwHuWo,HINDU COLLEGE,bus,13.11922,80.0738,0.009506276269844911
bus_KPcRWbGT,ALAPAKKAM,bus,12.88704,80.10704,0.009502930219916226
bus_nJRQzVZQ,JANAPANCHATRAM KOOT ROAD JUNCTION,bus,13.26204,80.15492,0.00948104425618234
suburban_WJ_P_2,WALAJABAD,suburban,12.79706326,79.81808625,0.009466258970973205
bus_NSvMYbfW,MANNIVAKKAM SCHOOL,bus,12.89146,80.06946,0.00943486019322106
bus_yjQwxGED,NEDUGUNDRAM,bus,12.88028,80.10882,0.00940650572365224
bus_rDmQAEpc,THERADI,bus,13.1433,79.90877,0.009401033926963204
bus_bciZjPUu,AVADI H.V.F ROAD,bus,13.1204,80.10322,0.009397681587805335
bus_649,KOLATHUR,bus,12.549663,80.143925,0.009388295313496761
bus_hclxEtFC,GUINDY METRO STATION,bus,13.00938,80.213,0.00935397902529303
bus_ntDOQspU,ST. THOMAS MOUNT P.O,bus,13.00176,80.19622,0.009346909369336276
bus_mHRdWDIt,SPENSOR PLAZA TVS,bus,13.05947,80.25992,0.009318402939497853
bus_AlpXiRiW,PERIYAPALAYAM B.T,bus,13.30806,80.04646,0.009308066859095502
bus_vDTAjOOR,SRIPERUMBUDUR BYPASS,bus,12.96226,79.94526,0.009303464977819852
bus_BDmybVdG,THIRUVALLUR B.T,bus,13.14043,79.90804,0.009285549657993431
bus_MVExtcyL,AVADI POST OFFICE,bus,13.12593,80.1033,0.009282197318835563
bus_CheNYOmP,VELAPPANCHAVADI,bus,13.06139,80.13888,0.009281528869001642
bus_ArfZenbk,CHITHALAPAKKAM TNHB,bus,12.89112,80.17576,0.009277737716367118
suburban_MLHS_P_2,LIGHT HOUSE,suburban,13.045875,80.276974,0.009240839907428218
bus_VriUyyDM,KELAMBAKKAM B.T,bus,12.78653,80.22179,0.00923510704081813
bus_yQmtaWgt,TRAVELLERS BANGALOW OR PATTUNOOL CHATRAM,bus,12.95626,79.94296,0.009187980708850081
bus_hSRFRBsa,IYYAPPANTHANGAL B.T,bus,13.0379,80.13505,0.009182299920179727
bus_iIARpDWU,THIRUVALLUR,bus,13.13898,79.9076,0.00917006538902366
bus_VPUbGzfh,AVADI BHARATHIYAR NAGAR,bus,13.12863,80.10357,0.009166713049865792
suburban_MMNK_P_1,MARAIMALAI NAGAR KAMARAJAR,suburban,12.79676,80.020001,0.009117599282209609
bus_CsZszdUY,MADANBAKKAM KOZHI PANNAI,bus,12.90332,80.15854,0.009114527627722172
bus_yzzIynLu,PANIMALAR COLLEGE,bus,13.04698,80.07542,0.009111557304738178
bus_UVIVXUaJ,KARAYANCHAVADI,bus,13.04625,80.11201,0.009090040984302127
bus_funWfCdm,POONAMALLEE KALLARAI,bus,13.04916,80.10573,0.00904761784230916
bus_RXuaQdiQ,MEDAVAKKAM PALLAVAN NAGAR,bus,12.9109,80.19642,0.009030274863231023
bus_UUCrlfWg,NERKUNDRAM VENGAYA MANDI,bus,13.06981,80.18167,0.00902937979957157
bus_fbatEtfg,SIDCO KUNRATHUR,bus,12.96905,80.09523,0.009008885759340977
bus_OoTDKQHC,VAZHUTHALAMBEDU ROAD JUNCTION,bus,12.96786,80.10254,0.008995437270753685
bus_bTSeOnqx,PADAPAI M.G.R NAGAR,bus,12.89209,80.04022,0.00898178373818092
bus_61845cb9a348c3523333220ed92b324e,PUZHAL JAIL,bus,13.16414,80.20252,0.008953222704955566
bus_RZSdunHk,NOLAMBUR POLICE BOOTH,bus,13.08048,80.1617,0.00893676864692578
bus_Qsigtmbx,POWER HOUSE BASIN BRIDGE,bus,13.09813,80.2683,0.008905807658912048
bus_imyhTmbO,KARASANGAL,bus,12.89446,80.04689,0.008866299469211147
bus_QRngTwFS,KAKKANJI NAGAR,bus,13.12499,80.06622,0.008838740186676228
suburban_PALR_P_2,PALUR,suburban,12.76637993,79.9066831,0.008833382145968066
bus_102,M.G.R.CENTRAL,bus,12.549663,80.143925,0.008824861370279935
bus_WyfCQhSW,AVADI CHECK POST,bus,13.11952,80.096,0.008807204113364648
bus_zrFdTehz,MOOLAKKARAI,bus,13.19203,79.95032,0.008803650419743925
bus_NdVNfPps,TIRUVOTTIYUR RAILWAY GATE OR KCP,bus,13.15685,80.29561,0.008784213044837074
bus_rBCwdRqs,TRADE CENTRE NANDAMBAKKAM,bus,13.01655,80.18991,0.008753490819843023
bus_HlhFjJtZ,PEERKANKARANAI KODIKAMBAM,bus,12.9024,80.10083,0.00874343228386811
bus_neNWquOh,CENTRAL DENTAL COLLEGE,bus,13.08293,80.28209,0.008736339143940479
bus_PxKzEfaJ,PATTABIRAM UZHAVAR NAGAR,bus,13.12971,80.05782,0.00872473648525735
bus_lWnrzrzW,NASARATH,bus,13.18423,79.94664,0.008688166150774152
bus_dQfoCLXo,DON BOSCO MATRICULATION SCHOOL KARANODAI,bus,13.25238,80.15545,0.008687734193853889
bus_exnIZrMP,CHENNAI PETROLEUM CORPORATION LIMITED,bus,13.16136,80.26891,0.008681677672518462
bus_PkbhOCMh,RETTERI GANDHI NAGAR,bus,13.03615,80.14833,0.008681626367509023
bus_XFPAZveS,TAMBARAM RAILWAY STATION,bus,12.92559,80.11737,0.008679698181706458
bus_kKaTqilr,KARIMEDU,bus,13.13923,80.05658,0.008674890711043902
bus_ozuppJDT,METTUKULAM,bus,13.07415,80.19233,0.008670551809354792
bus_rckblBTM,AMBATTUR CANARA BANK,bus,13.11029,80.15212,0.008663351970577193
bus_puuUveiG,PARIVAKKAM CHATRAM,bus,13.06523,80.0984,0.008584237099871116
suburban_PCW_P_1,PERAMBUR CARRIAGE WORKS,suburban,13.107366,80.239047,0.00858167706900057
bus_IKzXRYHu,MADAMBAKKAM M.L.A OFFICE,bus,12.89746,80.16936,0.008572910187711185
bus_MLYhGOjG,OTHIKKADU,bus,13.17957,79.943,0.008572681881804382
metro_106_1,LIC,metro,13.06540373,80.26657741,0.00854314796862607
bus_2001b2578f97d6a90d9496e409df6669,PERAMBUR MANGALAPURAM,bus,13.10728,80.24545,0.008528956510052291
bus_YULSfngF,NERKUNDRAM,bus,13.07154,80.18649,0.008528942204559714
bus_ee2f190e2a38a5bcfb31307abc9a4555,IKKADU KANDIGAI,bus,13.17256,79.93595,0.008457197612834609
metro_147_2,New Washermenpet,metro,13.13402268,80.29274409,0.00844984577421345
bus_KplKuAnp,WAR MEMORIAL,bus,13.07313,80.28536,0.008426151160519327
bus_azqUKhQu,CHENGANMAL ROAD JUNCTION,bus,12.77087,80.21316,0.008404902499343284
bus_eLmJkuZC,MADHA ENGINEERING COLLEGE,bus,12.99443,80.08508,0.008392072912547677
bus_1180,KATTUR,bus,12.549663,80.143925,0.008369311116920191
bus_euIYYdlw,CSI BETHEL CHURCH IKKADU KANDIGAI,bus,13.17022,79.93397,0.008341713343864838
bus_OyAyNkqZ,SARAVANA STORE CHROMEPET,bus,12.95683,80.14344,0.008332817330368761
bus_RVGhYAxc,KOYAMBEDU SCHOOL,bus,13.07407,80.19991,0.008331051779350085
bus_adAJVrkD,NOOTHANCHERI CROSS ROAD,bus,12.89555,80.17375,0.008328902486590592
bus_tkPbrZUX,MANNIVAKKAM ROAD JUNCTION,bus,12.89458,80.06358,0.008326570283460987
bus_lctVuVOk,MOUNT ROAD SHANTHI THEATRE,bus,13.06767,80.26903,0.008309751059153346
bus_rDRMBgEM,VELLIYUR HOSPITAL,bus,13.21786,80.0106,0.008301789019123998
bus_954,ERUMAIYUR-II,bus,12.549663,80.143925,0.008299865408880117
bus_kiTgZeoH,SIRUKALATHUR,bus,12.99481,80.07828,0.008276588643577906
bus_999c2d763e387e0f399e988964933b5d,EKKADU CSI HOSPITAL,bus,13.15955,79.92232,0.008226229074895066
bus_SGnJOquj,AVADI CHECK POST,bus,13.11942,80.096,0.00821870513423336
bus_955,TRAFFIC AID POST,bus,12.549663,80.143925,0.008156730819224599
bus_cNHGbHfW,DOG CANNAL,bus,13.15285,80.28851,0.008136269486578895
bus_MtbBZIqI,B.D.O OFFICE IKKADU,bus,13.15647,79.91771,0.00812724605930238
bus_e3829dacd5b207d1b4d28da18625be79,THATHANKUPPAM,bus,13.11894,80.19852,0.008125919051848113
bus_tFSvrGay,THIRUNINRAVUR RAILWAY STATION,bus,13.12321,80.02945,0.008113351136516546
suburban_PZA_P_2,PALAVANTANGAL,suburban,12.99104415,80.1891505,0.00810210402207648
bus_WhHfbZWj,MUGALIVAKKAM,bus,13.02946,80.1684,0.008090211059541186
bus_eXTjiXiW,MADURAVOYAL RATION SHOP,bus,13.06681,80.17524,0.008076134007732319
bus_yfjUYWEe,PUSHPAGIRI,bus,12.91925,80.0253,0.00807329865795205
bus_mfgtosUp,VELLIYUR SCHOOL,bus,13.21707,80.00561,0.008070820481184455
suburban_MN_P_2,MINAMBAKKAM,suburban,12.98469755,80.17524851,0.008066171475715611
bus_MlqbsUKu,MEEANAMBAKKAM METRO,bus,12.98744,80.17597,0.008058244038237133
bus_uDnSXuvA,SIKKARAYAPURAM UZHAVAR SANTHAI,bus,12.99688,80.09166,0.008039041104155629
bus_gGkadTNm,VANDALUR GATE,bus,12.89324,80.0862,0.008020750780083219
metro_217_1,St.Thomas Mount,metro,12.99474861,80.19755432,0.008016656327201388
bus_xQSKBJml,MADURAVOYAL POST OFFICE,bus,13.06432,80.17154,0.007976850200421872
bus_11fb011967f640dbefc2e8346267d7ec,ATHIPET JUNCTION,bus,13.08915,80.16135,0.007969323284414112
bus_54e9fd21b02b9f3b4456a925a73fa4fa,NOLAMBUR POLICE BOOTH,bus,13.08051,80.16115,0.007969323284414112
bus_SgXyhVwd,S.I.V.E.T,bus,12.92077,80.16794,0.007963019195485624
bus_CcDOWlNm,CHETPET,bus,12.92486,80.01235,0.007957814388982277
bus_WeqAZPal,VILAPPAKKAM,bus,13.21584,79.98639,0.007955336212214682
bus_MklhhYCQ,POONAMALLEE MUNICIPALITY,bus,13.04489,80.11586,0.007941473923718478
suburban_HC_P_2,HINDU COLLEGE,suburban,13.118654,80.074979,0.007939514393625922
bus_260,THYAGARAYA NAGAR,bus,12.549663,80.143925,0.007919068812864706
bus_RapSzmXO,VENGAL BAZAR,bus,13.25196,80.01446,0.007914264307056048
bus_lqMPnIra,VADAPALANI BUS STAND,bus,13.04933,80.20673,0.00786981870817316
bus_cPMyJryL,RAMARATHNA THEATRE AVADI,bus,13.1169,80.09673,0.00786879766970529
bus_e3f079e9cf4f13dc616fa8d00e6cdb59,MALAI PATTU,bus,12.92995,80.00297,0.007842330120012505
bus_QHfelpAR,PAGULMEDU,bus,13.23781,80.0203,0.007798780038086276
bus_FFGyTMvJ,PORUR,bus,13.03529,80.15472,0.00779687487754567
bus_679,P1.PULIYANTHOPE POLICE STATION,bus,12.549663,80.143925,0.007766382998787966
bus_tDDddUJb,ANNA NAGAR C.P.W.D QUARTERS,bus,13.08222,80.19852,0.007763036151137049
bus_zfmNZkKD,U.T.I BANK OR MADIPAKKAM ROAD JUNCTION,bus,12.96597,80.18859,0.007757175396202643
bus_24a1859013d70179821e458d0d2528cf,KUNDRATHUR BUS DEPOT,bus,12.96849,80.10268,0.0077549406427194646
bus_ocUywYfN,AVADI KARUMARIAMMAN TEMPLE,bus,13.11348,80.09598,0.007753313400735518
bus_3434b05b967c190862acb0953c90e5b8,NAVALUR,bus,12.93636,79.99183,0.007726845851042733
suburban_MAS_P_4,CHENNAI CENTRAL SUBURBAN ,suburban,13.083037,80.27479,0.007711771334240809
bus_mkJuKiBe,THREE STATUE AYANAMBAKKAM,bus,13.07542,80.1539,0.007685505886196805
bus_HFKGyjhH,AYANAMBAKKAM TEA STALL,bus,13.0704,80.1525,0.007661679955461557
bus_ydoNqUsu,PERAMBUR VENUS THEATRE,bus,13.11367,80.23551,0.007655104591577257
bus_cwgbfpqq,RAMAPURAM MIOT HOSPITAL,bus,13.02058,80.18443,0.00764205263492375
bus_qVzVrWDp,CHENNAI PETROLEUM CORPORATION LIMITED,bus,13.16125,80.26927,0.007617656542492129
bus_wdfUFUDc,VANAGARAM SIGNAL,bus,13.06168,80.15149,0.007614086170125638
bus_uaQvVFAB,KATTUPAKKAM,bus,13.04072,80.1286,0.0076120771192723325
bus_004e84bc495943acb7ad28ca8cffadab,PILLAIPAKKAM ROAD JN,bus,12.95483,79.95827,0.0076113615820729615
bus_GnVcDFUF,MOOVARASAMPETTAI,bus,12.9695,80.18625,0.007604232444018752
bus_yLFlKjKg,PADI LUCAS T.V.S,bus,13.10125,80.18982,0.007601713790515702
bus_adsviABF,NATHAMUNI TALKIES,bus,13.10353,80.20257,0.007594698108934136
bus_OdbRrJhV,VANDALUR,bus,12.89354,80.08198,0.007592808558788894
bus_mnkgCFDT,GUINDY B.T,bus,13.00937,80.21111,0.007555392123117716
bus_BZCtSmhk,SARAVANA STORE CHROMEPET,bus,12.95657,80.14344,0.007503827314940936
bus_orpkgmYq,PERUMBAKKAM,bus,12.90777,80.1989,0.00750307380390702
bus_LPldZjRa,SIDCO NAGAR,bus,13.10307,80.19889,0.007479213839964364
bus_706,THATCHUR ROAD JN,bus,12.549663,80.143925,0.007453253190908689
bus_rIWwRQFx,SELAIYUR AMBEDKAR NAGAR CAMP ROAD,bus,12.91767,80.14554,0.00743937121345072
bus_xHyAtnfx,KIZHANOOR,bus,13.19813,79.96287,0.007412949690375476
bus_dScsNKLk,GUDUVANCHERI BUS TERMINUS,bus,12.84559,80.06129,0.0074007389005682316
bus_EPWXwPSq,PERUNBAKKAM BHARATHI VIDYALAYA,bus,12.9076,80.20192,0.007387589534937246
bus_135,PALAVAKKAM,bus,12.549663,80.143925,0.0073539862764668415
bus_905,LIFT GATE,bus,12.549663,80.143925,0.007350450750336113
bus_xfYjeqNM,SHASTRI BHAVAN,bus,13.0668,80.24796,0.007342993223403165
suburban_SP_P_2,SAIDAPET,suburban,13.02381606,80.22398619,0.007340862518975802
bus_yYSDLmlm,SEMBIAM OLD POST OFFICE,bus,13.11159,80.23874,0.007328248201404475
metro_111_2,Saidapet,metro,13.02402718,80.2286365,0.007324713245374678
bus_KgwKZlse,PERUNGALATHUR IRANIYAMMAN TEMPLE,bus,12.89743,80.0896,0.007322789637196461
bus_fGmFhgnx,DUNLOP,bus,13.10619,80.15232,0.007286503872040062
bus_vfoDngvn,PERUMBAKKAM GLOBAL HOSPITAL,bus,12.90547,80.2081,0.007272105265967475
bus_ajCBPuBp,RAJAKILPAKKAM,bus,12.92265,80.15187,0.007257753569385428
bus_952,OLD PERUNGALATHUR,bus,12.549663,80.143925,0.007254798651156296
bus_New123,KALAVAKKAM TEA STALL,bus,12.74182,80.19731,0.007222759452119374
bus_llFTEWtD,SEMBAKKAM,bus,12.9232,80.16032,0.007166979817365468
bus_NJSgWoOc,KALLUKKADAI,bus,13.10205,80.21099,0.0071635309304685785
bus_gHieypBQ,SHOLINGANALLUR HCL COMPANY,bus,12.90176,80.21837,0.007156620996997701
bus_OqBnJDkE,MADAMBAKKAM ANNA NAGAR,bus,12.90673,80.15942,0.007142269300415657
suburban_AIP_P_2,ATTIPPATTU,suburban,13.261438,80.289153,0.007139646864907474
bus_XQBvMmKm,THIRUNINRAVUR BUS TERMINUS,bus,13.12464,80.03242,0.007131452371621883
bus_dAxtDTje,KALADIPET,bus,12.98745,80.06435,0.00712981040866301
suburban_NBK_P_2,NUNGAMBAKKAM,suburban,13.06527764,80.23285281,0.00711817560786896
bus_tnRCfdJr,KALAVAKKAM SCHOOL,bus,12.74434,80.20024,0.007107275183149602
bus_rSnWVhOw,TIDEL PARK,bus,12.98965,80.25082,0.007105088206242752
bus_dCWftKsk,PORUR JUNCTION,bus,13.03461,80.15652,0.0070820097583152546
bus_IulxyPoH,KAMARAJAPURAM CAMP ROAD,bus,12.92341,80.15497,0.0070514955483956965
bus_fcSUqaEW,MANNURPET,bus,13.09824,80.17514,0.007050517481776326
bus_gRuqifBH,VYASARPADI,bus,13.11138,80.2657,0.007048752560673193
suburban_NPKM_P_2,NANDIYAMPAKKAM,suburban,13.2687,80.276032,0.00703131867243369
bus_byRkdSCW,SELAIYUR,bus,12.92242,80.13836,0.007030708914066642
bus_AJLJQqsT,PADIYANALLUR,bus,13.20454,80.17479,0.007015918848157866
bus_IzKulrBJ,KOVILPADAGAI,bus,13.13976,80.10403,0.007008996317275158
bus_AoRkaUmb,NEW PERUNGALATHUR SRIRAM GATE,bus,12.90096,80.09232,0.007001905185727547
suburban_PV_P_2,PALLAVARAM,suburban,12.96818726,80.15260422,0.006984546606235455
bus_OLfrsrRj,KARASANGAL ERIKARAI,bus,12.89859,80.04099,0.006983515358732548
bus_217,WOMEN'S POLYTECHNIC,bus,12.549663,80.143925,0.006979486503022178
bus_ozAxYCwR,VALLALAR NAGAR B.T,bus,13.10577,80.28042,0.006972988277559919
bus_New196,KOVILANCHERY VILLAGE,bus,12.88254,80.1706,0.006972645758653921
bus_zlRPdbBz,CHEMBARAMBAKKAM TEMPLE,bus,13.04333,80.06297,0.006955479818670473
bus_35696fc402cd8d5d266d73aed62c0d3a,BASIN BRIDGE,bus,13.10482,80.27126,0.00694501806138872
metro_113_2,Guindy,metro,13.00936883,80.21343944,0.006942039023781682
suburban_MJR_P_2,MINJUR,suburban,13.282025,80.259837,0.0069353285428840295
bus_IJrmTLNf,EAST TAMBARAM AATHI NAGAR,bus,12.92265,80.13334,0.00691522464509687
bus_1525,BANGARUPET,bus,12.549663,80.143925,0.006907386934805539
suburban_ENR_P_2,ENNORE,suburban,13.217914,80.321748,0.006902062401587034
bus_LIgtsZTQ,MANIMANGALAM POLICE STATION,bus,12.9162,80.03981,0.006901327884952791
bus_LDSuadxM,MEDAVAKKAM KOOT ROAD,bus,12.92044,80.18507,0.006896946067414594
metro_206_1,Shenoy Nagar,metro,13.07971448,80.22463254,0.0068885872917951885
bus_oeTroIck,THAIYUR KOMAN NAGAR,bus,12.75695,80.20721,0.0068763066452100586
bus_BsovYeFI,KELAMBAKKAM VIJAYA SHANTHI LOTUS POND,bus,12.76011,80.20893,0.0068722762113215125
metro_146_2,Tollgate Metro,metro,13.14266249,80.29600255,0.006870820481184455
bus_MAxpakLW,VADAPERUMBAKKAM KANNIYAMMAN TEMPLE,bus,13.17181,80.21984,0.00685935094121644
bus_142,PERIYAPANICHERI,bus,12.549663,80.143925,0.006798046735592978
bus_KiOCmsmI,PATTABIRAM THANGAMANI SCHOOL,bus,13.12153,80.07062,0.0067967907727342165
bus_aLyOqIFS,KANNADAPALAYAM BHARATHI NAGAR,bus,13.14521,80.1046,0.006777040734301685
bus_lxBswvKX,MOOLAKADAI,bus,13.12863,80.24179,0.006770708822084917
bus_fDeHEcoN,KUNDRATHUR ANNAI ANJUGAM NAGAR,bus,12.97815,80.05287,0.006764355874702954
bus_New532,PREETHI NAGAR,bus,13.25441,80.00332,0.00675909007146232
metro_207_1,Anna Nagar East,metro,13.08472565,80.22005328,0.00674077729796422
bus_jQaLNViL,THIRUVANMIYUR JAYANTHI THEATRE,bus,12.98891,80.25604,0.006723490095940578
bus_YlcUcHmr,PARIVAKKAM EP,bus,13.06558,80.09657,0.006719040527879196
bus_glDvUhXc,RAMACHANDRA HOSPITAL,bus,13.0369,80.14204,0.0067077030594151705
metro_148_1,Tondiarpet,metro,13.12398868,80.28817191,0.006696024247904472
bus_Uacajbua,THIRUPORUR TEMPLE,bus,12.72983,80.189,0.0066838218964328485
bus_MjMnNBLG,KANAGACHATHIRAM,bus,13.13691,80.23065,0.0066744679257443
bus_37,CONCORD,bus,12.549663,80.143925,0.0066706617746170715
bus_CGfCHyje,PATTABIRAM ROAD,bus,13.05673,80.09763,0.006656036317785794
metro_101_1,Washermenpet,metro,13.10657326,80.28076413,0.006649120086903022
bus_puwcRgFs,TAMBARAM SANATORIUM B.T,bus,12.93715,80.12757,0.006642961619054068
bus_SOzmnmNW,MEDAVAKKAM VIJAYA NAGARAM,bus,12.91878,80.17887,0.006640435334353255
bus_d3aa76b2cd3efc50d1218a9f15b32919,MAMBAKKAM VIT UNIVERSITY,bus,12.84027,80.15287,0.0066387493262685905
bus_c062aac90e2e70aa0ee55ee03fe5dcbe,MAMBAKKAM VIT UNIVERSITY,bus,12.84029,80.15296,0.0066387493262685905
bus_PFPLEnYs,AYANAMBAKKAM ISWARYA NAGAR JUNCTION,bus,13.0769,80.1592,0.006633876938835777
suburban_VEU_P_2,VEPPAMPATTU,suburban,13.123821,79.998751,0.006632306425304497
bus_202,URAPAKKAM SCHOOL,bus,12.549663,80.143925,0.00662180909062108
bus_jvLymITs,CAMP ROAD JUNCTION SELAIYUR,bus,12.92229,80.1431,0.006585787509483647
bus_OnjVGLlO,TONDIARPET APPARTMENT,bus,13.12824,80.28169,0.0065855485270824455
metro_110_2,Nandanam,metro,13.03112925,80.24035987,0.006585077953732943
bus_SqxhBMol,MOTCHAM THEATRE,bus,13.08489,80.25023,0.006584376238518974
bus_yVpVwFWL,PONNERI TALUK OFFICE,bus,13.33196,80.19445,0.006570974984993313
bus_WHGPMVcf,VEPPAMPET BUS STOP,bus,13.12483,79.99682,0.006567485184663301
bus_6c2eb3eb9852fb7cd96e32d050d59732,KEELAKOTTAIYUR,bus,12.8378,80.15512,0.006561759813622047
bus_DzkWADkh,MADHAVARAM BUS DEPOT,bus,13.13235,80.23688,0.00655898365677453
bus_790,KOILPATHAGAI RD.JN.,bus,12.549663,80.143925,0.0065504008724233
bus_XCZfXGna,COLLECTOR NAGAR,bus,13.08786,80.18893,0.006547688289545117
bus_SJHseTdc,VADAPALANI RAM THEATRE,bus,13.05144,80.21711,0.006543622821183863
bus_oHyqEJfk,VANDALUR,bus,12.89342,80.08212,0.006538069384597732
bus_551,S.R.P.COLONY,bus,12.549663,80.143925,0.006535181979843958
bus_fGCuvnjJ,MADAMBAKKAM E.B,bus,12.90078,80.16153,0.006534434630458846
bus_a9001d61bbc22ca869146d69063fd053,ICF,bus,13.0985,80.21397,0.006515408741918923
bus_FDPmqphv,PERIYAMEDU,bus,13.0837,80.27064,0.006496352285173437
bus_vCxCuCVD,VELLAIKAL,bus,12.9316,80.18154,0.006490824467414065
metro_112_2,Little Mount,metro,13.01454669,80.22424799,0.006483510349072047
bus_XwcxmOai,STERLING ROAD CHETPAT,bus,13.06202,80.24326,0.006479356836249164
bus_SUVVzOYC,NANDAMBAKKAM TRADE CENTRE,bus,12.98378,80.06257,0.006474310338314439
bus_PIUpvPaY,THIRUMANGALAM EB OFFICE,bus,13.08726,80.19757,0.006458607475232966
bus_JXJZtHSD,POONAMALLEE SAVEETHA HOSPITAL,bus,13.05348,80.12374,0.00644959095946566
bus_fKUdbDza,ANDARKUPPAM CHECK POST,bus,13.19202,80.26982,0.006432808455936638
bus_UlmLxwtK,PANDIKAVANUR,bus,13.26296,80.1349,0.006428590802266034
bus_d8f7969953ca6fa6510fb45010f19f44,MOOLAKADAI,bus,13.12909,80.24112,0.006425514602915869
bus_17f4c635a718b5af22800c54a7bda629,MANNIVAKKAM P.S,bus,12.89126,80.06981,0.00642258511562796
bus_VTHwomVj,MADURAVOYAL ERIKARAI,bus,13.06138,80.16448,0.006418334501536973
bus_qXMrbZDt,KOVILAMBAKKAM VEERAMANI NAGAR,bus,12.94478,80.18295,0.006415794057134858
bus_oAtDCozl,BHARAT ENGINEERING COLLEGE OR BALAJI NAGAR,bus,12.90709,80.14253,0.006387899633961455
bus_cThdGxLv,NANTHAVANAM ALAGESA NAGAR,bus,12.98258,80.06012,0.006358826069344667
metro_149_1,Thiyagaraya College,metro,13.11561642,80.28446928,0.0063585619545226246
bus_MShWAgyL,AIRPORT BINNY MILLS,bus,12.98448,80.17685,0.006357111281492098
suburban_KOTR_P_1,KORATTUR,suburban,13.11326,80.184464,0.006355891425046268
bus_928,SIRUKALATHUR,bus,12.549663,80.143925,0.0063542467268232865
suburban_MKAK_P_2,MUNDAKAKANNI AMMAN KOIL,suburban,13.041182,80.270386,0.0063526628343827905
bus_IfTbUocE,THIRUMULLAIVOYAL SARASWATHI NAGAR CTH SALAI,bus,13.12806,80.13985,0.006338185847087454
bus_xYUjBvzT,VELAPPANCHAVADI ACS MEDICAL COLLEGE,bus,13.05809,80.12887,0.0063341066904958904
bus_jiQkTSqX,VENGAL COLLEGE,bus,13.26245,80.02534,0.006328809376927823
bus_wRTYbalx,CHEMBARAMBAKKAM KOVIL,bus,13.04322,80.06299,0.006324691069479705
bus_HyvnzuHA,PONNERI BUS TERMINUS,bus,13.33589,80.19384,0.006320080475431314
bus_dfrJZjmW,RED HILLS THIRUVALLUR ROAD JUNCTION,bus,13.19637,80.18095,0.0063182423698316835
bus_523,TVS MCC MOTORS,bus,12.549663,80.143925,0.006315031803363671
bus_103,M.G.R.KOYAMBEDU,bus,12.549663,80.143925,0.006313977463066916
bus_PfZAlPvE,THANAKULAM,bus,13.26219,80.12396,0.006313106533296262
bus_25,M.G.R.CENTRAL,bus,12.549663,80.143925,0.0063094368319656135
bus_New218,MANNIVAKKAM PUDU NAGAR,bus,12.89661,80.07027,0.006307100846658188
bus_LPfgjVyT,DMS,bus,13.047,80.24857,0.006306931797221193
bus_bsQVAuyn,MADURAVOYAL MARKET,bus,13.06326,80.16712,0.006302850232567201
bus_rxopZurY,ECHANKADU,bus,12.94701,80.18412,0.006300309788165087
bus_cfakSbWj,INDIRA NAGAR CAMP ROAD,bus,12.9125,80.1431,0.00628523259143303
bus_JsvRApZJ,STANLEY NAGAR,bus,13.10894,80.27313,0.006271215796708231
bus_831,MANALI RD.JN,bus,12.549663,80.143925,0.006267571590435857
bus_tBgOcvQf,MOOLAKADAI,bus,13.12918,80.24142,0.006267385050967964
bus_aZaGhhAB,AVADI POST OFFICE,bus,13.12553,80.10329,0.0062666504954912005
bus_PNniCxAw,AVADI H.V.F ROAD,bus,13.12019,80.10317,0.006264923166681823
bus_qOusBBOu,KOVILAMBAKKAM,bus,12.93912,80.18238,0.006259855929474522
bus_EocVuyzS,LIC,bus,13.06291,80.26395,0.006240200994420578
bus_185,THIRUMANGALAM,bus,12.549663,80.143925,0.006239280841302611
bus_191,THIRUVOTRIYUR B.T,bus,12.549663,80.143925,0.006236784802218024
bus_ckoHNDVp,ST THOMAS MOUNT RAILWAY STATION,bus,12.99438,80.20026,0.006230228254164097
bus_EXTmTMKf,SEEVARAM,bus,12.95165,80.24177,0.0062274732918367395
bus_57,GUDUVANCHERY,bus,12.549663,80.143925,0.006227111011975507
bus_1060,CHENGALPET,bus,12.549663,80.143925,0.006225822908770477
bus_xqQnPHkt,THIRUMULLAIVOYAL STEDFORD HOSPITAL,bus,13.12449,80.14366,0.006222701578117682
bus_ZbWvPaMm,AIRPORT BINNY MILLS,bus,12.98433,80.17671,0.006220130900174649
metro_213_1,Vadapalani,metro,13.0510565,80.21168145,0.006218539812844166
bus_JFVlrPHE,VAIKADU,bus,13.18422,80.26998,0.00621451571067693
bus_gxidCspv,CHEMBARAMBAKKAM,bus,13.04065,80.05755,0.006209206800509934
bus_HJijptKA,THIRUPORUR TEMPLE,bus,12.72991,80.18901,0.0062088528596661715
bus_oiYuCTCe,MADURAVOYAL ERIKARAI,bus,13.06118,80.1645,0.0062077801503102464
bus_lEwLedpG,CEMENT ROAD ALANDUR,bus,12.99571,80.18894,0.006204183316967528
bus_lsFGVtlq,ADYAR B.T,bus,13.00658,80.25321,0.006199825635965616
bus_NfMyQHAw,MANJANKARANI,bus,13.26692,80.11435,0.00619762226432649
bus_sXdfcDSs,MOOVARASAMPETTAI,bus,12.96953,80.18626,0.006194512007449031
bus_pygvGZaF,MADURAVOYAL POST OFFICE,bus,13.0647,80.17192,0.0061873659635974295
bus_221,TAMBARAM EAST,bus,12.549663,80.143925,0.006174531467485327
bus_55c45f48a6c73401c4ee2423e01e17ce,PADIYANALLUR,bus,13.20453,80.17489,0.006173475911698924
bus_9222c33e3020128b1f6a1e0a2ad05d65,VADAPALANI S.I.M.S HOSPITAL,bus,13.05394,80.21172,0.006165986426830517
bus_130,NERKUNDRAM,bus,12.549663,80.143925,0.006162912161143572
bus_qqQgwpPP,PERAVALLUR,bus,13.11619,80.23149,0.006162795555892114
bus_wggFpXDl,INDIRA GANDHI STREET,bus,13.07735,80.16084,0.006143517711388332
bus_552,T.V.K.NAGAR,bus,12.549663,80.143925,0.006125989115673089
bus_TdXLhpcB,ADAMBAKKAM,bus,12.99081,80.19849,0.006114003701418878
bus_JMPYaKbU,SALT OFFICE,bus,12.78213,80.2294,0.006112715059291248
bus_LoxEXWve,SEMBIAM OLD POST OFFICE,bus,13.11199,80.23823,0.00610934706814923
bus_kOVxiGFe,NEW KARIKKALVAKKAM,bus,13.21104,79.98272,0.006107587908698335
bus_DDFCohxX,JNN ENGINEERING COLLEGE,bus,13.26969,80.10926,0.0060821379953567185
bus_903,THIRUVOTRIYUR B.T,bus,12.549663,80.143925,0.006079218543156788
metro_145_2,Kaladipet,metro,13.15090825,80.29963587,0.006073534855027761
bus_gnmwaIOJ,MADURAVOYAL RATION SHOP,bus,13.06692,80.17516,0.006071881694627658
bus_ztLkgYlA,MOOLAKADAI,bus,13.12902,80.24108,0.00606676569520586
bus_nrUfCQxz,METROLOGICAL DEPARTMENT STERLING ROAD,bus,13.06777,80.24636,0.006052596617107476
bus_1429,KATTUR RD.JN,bus,12.549663,80.143925,0.006050530466928038
bus_PrkhDzLx,BASIN BRIDGE,bus,13.1048,80.27118,0.006044277443397355
bus_HFYkXdPG,THATHANKUPPAM,bus,13.11899,80.19845,0.00603654083053364
bus_ARTSSefO,NUNGAMBAKKAM VETNARY HOSPITAL,bus,13.05262,80.24018,0.006015833667816685
bus_UvdLYolu,THIRUNINRAVUR JAYA COLLEGE,bus,13.12501,80.04359,0.0060065443062498535
bus_qUWcqGRU,VISHNUVAKKAM,bus,13.2042,79.97307,0.006004359119225496
bus_miDIXkTS,ADAMBAKKAM SURENDHAR NAGAR,bus,12.98666,80.19741,0.005998519432449106
bus_TIoMzhxD,PERAMBUR VENUS THEATRE,bus,13.11354,80.23565,0.005991614229893363
bus_New67,PORUR VENKATESHWARA HOSPITAL,bus,13.03633,80.1529,0.005980558717199611
bus_elxmPCDf,GOVERNMENT SCHOOL SHOLINGANALLUR,bus,12.89353,80.22767,0.005979888404094882
bus_IGRxApsM,KOVALAM KELAMBAKAM ROAD JUNCTION,bus,12.78408,80.24546,0.0059791361570774295
bus_ekoOPpVq,IRULAPALAYAM ROAD JUNCTION,bus,13.03594,80.04409,0.005978238262570389
bus_YcVwXeam,KANNIGAIPAIR CHURCH,bus,13.27383,80.10078,0.005966653726386947
bus_XGJiqzLW,J.J NAGAR WEST B.T,bus,13.08259,80.17027,0.005954826002144706
bus_IJbUVGLH,KUNDUMEDU,bus,13.0513,80.06522,0.005954232310708074
bus_ANpclgWP,MADHAVARAM KEATHER COMPANY,bus,13.13483,80.23868,0.005928278167297889
bus_wFSILCzc,RAAKI THEATRE,bus,13.12182,80.14794,0.0059269124837533944
suburban_APB_P_1,ANUPPAMBATTU,suburban,13.304406,80.230971,0.005916926822132447
bus_buAeVenh,PERIYAR SALAI,bus,13.05324,80.23733,0.005900349398846914
bus_New170,BOORIVAKKAM SCHOOL,bus,13.25868,80.07816,0.005895790193962917
bus_zOQhKaAF,CHOOLAI ROUNTANA,bus,13.09128,80.26944,0.005895404213188993
bus_ZqBGCTqq,P U OFFICE SHOLINGANALLUR,bus,12.9031,80.22816,0.005879213400301841
bus_gWHAQwVu,IRULAPALAYAM ROAD JUNCTION,bus,13.03619,80.04404,0.005877473486420814
bus_1294,MAYLAIMA NAGAR,bus,12.549663,80.143925,0.005871964756562967
bus_EBckcZXF,KODAMBAKKAM KAMDAR NAGAR,bus,13.05364,80.23505,0.005865109541028401
bus_EYgpmtHR,RETTERI GANDHI NAGAR,bus,13.03629,80.14811,0.005856479892466875
bus_514,CHEMBARAMBAKKAM,bus,12.549663,80.143925,0.005853092097296702
bus_BmBzVYhd,KANNIGAIPER,bus,13.27447,80.09492,0.005851169457417175
suburban_AIPP_P_4,ATTIPATTU PUDU NAGAR,suburban,13.2492,80.300049,0.005843764832419516
bus_SPorkGXj,THIRUMAZHISAI TEMPLE,bus,13.05453,80.06148,0.005838748041738302
bus_lQIpGOTn,ST. THOMAS MOUNT P.O,bus,13.00197,80.19725,0.005838036237470834
bus_gdbAGAQU,MURARI HOSPITAL,bus,13.13754,80.23782,0.0058246900396659316
bus_2249631e47d494fa745634e4961dba7f,P1.POLICE STATION,bus,13.09986,80.25984,0.005824099437366628
bus_New233,NEYVELI,bus,13.26019,80.09133,0.005806016847329339
bus_xiCfcAgb,ROHINI THEATRE,bus,13.07529,80.19584,0.005800095744619454
bus_QRWCUyXY,KANNAPALAYAM KOOTROAD,bus,13.0888,80.09195,0.005793252028252585
bus_gKNaWgzA,MADAMBAKKAM M.L.A OFFICE,bus,12.89757,80.16908,0.0057828574147483925
bus_PuHLPXYe,THERVOY PERIYAR NAGAR,bus,13.27142,80.03558,0.005780999383096854
bus_eyAJPdep,GOPALA KRISHNA THEATRE,bus,13.03396,80.16041,0.005778817075354667
bus_nYVfIRsk,MADHYA KAILASH,bus,13.00662,80.2462,0.005772479216509861
bus_ngHHCDQb,NOOTHANCHERI CROSS ROAD,bus,12.89564,80.1737,0.005742591265105315
bus_HIkBoDID,THACHUR KOOT ROAD JUNCTION,bus,13.29654,80.14801,0.005736508578227441
bus_9cb31891f7a0bfe0e3ad1c8b0d972324,GUINDY B.T,bus,13.00873,80.21048,0.005736063573813711
bus_YkNJvTAu,THIRUNINRAVUR RAILWAY STATION,bus,13.12445,80.02906,0.005733711818939937
bus_OUlPxErG,THIRUMAZHISAI BUS STAND,bus,13.05504,80.05729,0.005723263772768531
bus_406,KOILPATHAGAI(BHARATHI NAGAR),bus,12.549663,80.143925,0.005719447488263244
bus_New70,TEMPLEANCHERY COLONY OR THAILA MARAM KADU,bus,12.87612,80.17078,0.005717566552414153
bus_ciAbSxQX,MOULIVAKKAM L&T,bus,13.01915,80.14262,0.0056936718897593434
bus_mvgVyONe,METTUPALAYAM EMERALD PARK,bus,13.07473,80.09976,0.005693560479825687
bus_956,THIRUMUDIVAKKAM SIDCO-I,bus,12.549663,80.143925,0.005671498993491407
bus_sceVWPKZ,MINJUR MARKET,bus,13.27899,80.26019,0.005671386809802064
bus_AWZaYJbg,VADAMADURAI,bus,13.28701,80.04217,0.005665515114127082
bus_aQxdJxqw,KEELKATTALAI,bus,12.95615,80.18681,0.005656277960025046
bus_WcOcULlY,KALADIPET,bus,12.98716,80.0642,0.0056527823008957504
metro_209_1,Thirumangalam,metro,13.08499774,80.20220918,0.005649845774213449
bus_zzxlwhdI,EGATTUR,bus,12.83673,80.22852,0.005640087707440819
bus_olAnplnl,RAMAPURAM MIOT HOSPITAL,bus,13.02078,80.18446,0.005638344615114544
bus_KwaxxmSs,PARK TOWN NURSE QUARTERS,bus,13.08218,80.27897,0.005632007422596719
bus_cnfJcHrj,PAPPANCHATHIRAM,bus,13.03255,80.03747,0.005631785455661073
bus_New118,PAZAVANTHANGAL TRIDENT HOTEL,bus,12.99415,80.18564,0.005610796441330424
bus_jEliwrSM,KEELMANABEDU,bus,13.06399,80.04517,0.005607779503798759
bus_322b6aaf6179cb0a4b48f05c7b48f3a0,KATCHIPEDU KANGAI AMMAN TEMPLE,bus,12.95472,79.9499,0.005595857612663395
bus_933,KANNADAPALAYAM,bus,12.549663,80.143925,0.005593678882289276
metro_208_1,Anna Nagar Tower,metro,13.08517703,80.20848648,0.005593090684762493
bus_eKMWhxRF,AVICHI SCHOOL,bus,13.04747,80.19777,0.0055628488968578
bus_qWvzRbGV,PATTABIRAM,bus,13.12141,80.06409,0.005558988587298072
bus_XaMitbnP,SRI RAMAPURAM KANDIGAI,bus,13.29401,80.04734,0.0055500308451573105
bus_KQaXxZDT,CHEMBARAMBAKKAM,bus,13.04084,80.05773,0.0055423521450601
bus_NajoDNFv,MADIPAKKAM GANESH NAGAR,bus,12.96177,80.18732,0.005540793691055274
bus_JALpXpKc,CHEMBARAMBAKKAM SARASWATHINAGAR,bus,12.99312,80.06809,0.005537298031925979
bus_BmQLYaPd,PANDI RICE MILL,bus,13.12555,80.03716,0.0055300483161203045
bus_HezLsNFQ,MUGALIVAKKAM,bus,13.02916,80.16925,0.0055218910896687795
bus_njiqgOWt,PALLAVARAM,bus,12.9675,80.14905,0.005516939471850557
bus_uuLXjUrY,QUEENSLAND,bus,13.02831,80.03011,0.005516301186691302
bus_jnDfAorM,THIRUVERKADU B.T,bus,13.06932,80.12397,0.005504016904602413
bus_38,CHRIST KING CONVENT,bus,12.549663,80.143925,0.0055021660028693005
bus_NAwFzVQz,MEL MENAMBEDU,bus,13.06674,80.03936,0.005492295234828987
bus_jappmlZc,MOONDRAM KATTALAI,bus,13.00548,80.1094,0.005487903820694014
bus_cf278f1f3cd639336523c353ae5b48b4,PILLAIPAKKAM ROAD JN,bus,12.95459,79.95887,0.005480373343693623
bus_YxUFlvZH,VICHOOR ECHAKUZHI,bus,13.20353,80.26992,0.005475869851375923
bus_hwOMxSYP,MOOLAKOTHALAM,bus,13.10384,80.27352,0.00546722286359488
bus_ysSWNERo,MEEANAMBAKKAM INTERNATIONAL AIRPORT,bus,12.98609,80.17429,0.005455746652628123
suburban_POTI_P_1,POTHERI,suburban,12.820981,80.036813,0.005454704192032884
suburban_TYMR_P_2,TIRUVANMIYUR,suburban,12.990599,80.251031,0.005448341566535534
bus_qNEatmrc,AVADI ROAD JUNCTION,bus,13.2985,80.04853,0.005434546576187539
bus_aIrbaHhk,SIRUKALATHUR KOZHI PANNAI,bus,12.99449,80.07499,0.005421813762956207
bus_ZLCIvgrp,THIRUPORUR,bus,12.73622,80.19055,0.005419546296823537
bus_XyHfgUxW,AMBATTUR TI MILLER,bus,13.10362,80.15649,0.005416975127813994
metro_116_2,Meenambakkam,metro,12.98760088,80.17603091,0.005410288674384003
bus_hpCuKAjH,DLF OR L AND T,bus,13.02384,80.17891,0.005406406820699007
bus_spVkBMtX,CHETTIPEDU,bus,13.02401,80.02321,0.00540081691772153
bus_rlFkXMBS,RED HILLS EB OR AZHINJIVAKKAM ROAD JUNCTION,bus,13.20164,80.19485,0.005391361930698974
bus_suszCmcx,MOUNT RD THOUSAND LIGHT,bus,13.05687,80.25672,0.0053822227484389635
bus_gOnMxlos,THIRUVALLUR COURT OR OLD COLLECTOR OFFICE,bus,13.13701,79.91755,0.005381786548801572
bus_RHzXTuOU,VELLAVEDU,bus,13.06801,80.03697,0.005379718613366806
bus_RuqLEiFp,VELLAVEDU,bus,13.06795,80.03693,0.005376810965859216
bus_RVyaKvKa,TONDIARPET AGASTHIYA THEATRE,bus,13.12393,80.28836,0.005371469738281076
bus_EzivGHuE,PADI YADHAVA STREET,bus,13.09937,80.18489,0.005370280407693977
bus_gaLZwYvS,ANNA SQUARE B.T,bus,13.06642,80.28431,0.005366693682627302
bus_npYXJyuT,AVADI KARUMARIAMMAN TEMPLE,bus,13.11338,80.09596,0.005364938450322496
bus_834194e181de60c78ca867841b453476,NAVALUR,bus,12.93641,79.99188,0.0053648890747238515
bus_bfcf9b7b9d25bf3659a12a14cc9e9362,NANDANAM METRO,bus,13.0309,80.23999,0.005357888468984723
bus_QZgueNIh,MANALI M.F.L,bus,13.17823,80.27017,0.005356056413236213
bus_JovbzjVh,PERAMBUR RAILWAYSTATION,bus,13.10815,80.24465,0.005347629234024514
bus_17,ANNA UNIVERSITY,bus,12.549663,80.143925,0.0053443880320294046
bus_xyBTaHvp,PUDUR,bus,13.1307,80.15904,0.005332738944175865
bus_120,MUTHUMARIAMMAN KOVIL,bus,12.549663,80.143925,0.005330592168986088
bus_1308,T.V.T RLY GATE,bus,12.549663,80.143925,0.005330327186601656
bus_0ca447063a5abfef00b41b483d9ed8fd,MMDA COLONY ROAD JUNCTION,bus,13.06517,80.211,0.005323016029228675
bus_907,ELLAIAMMAN KOVIL,bus,12.549663,80.143925,0.005320052425613771
bus_dYlTtQAF,SIRUKALATHUR,bus,12.99495,80.07837,0.005306329493986435
bus_JBKBSnyq,PATTABIRAM B.T,bus,13.12263,80.06108,0.005302905593526056
bus_DNyXiZzj,PAMMAL,bus,12.97444,80.13526,0.0052973558720939345
bus_hqxwmRzJ,KATTRAMBAKKAM,bus,12.96938,80.01824,0.005294510389797058
metro_115_2,Nanganallur Road,metro,12.99968301,80.19405757,0.0052938790506949236
bus_UfJDroVz,ADYAR GANDHI NAGAR,bus,13.00689,80.24946,0.005293267123044772
bus_sCEThkda,SADANANDAPURAM,bus,12.89611,80.11003,0.0052925938877559425
bus_ixhHdGBo,KUTHAMBAKKAM SAVEETHA MEDICAL COLLEGE,bus,13.02198,80.0165,0.005285332648751758
bus_sYDsxIhh,KAKKALUR,bus,13.13525,79.92764,0.005266302279831801
bus_1455,II ND MAIN ROAD,bus,12.549663,80.143925,0.005265803167623631
bus_6461513c5767a25255a8d9e21a058faf,POONAMALLEE GOVERNMENT HOSPITAL,bus,13.0503,80.09931,0.005265317609503228
bus_CEZTRnUo,POONAMALLEE GOVERNMENT HOSPITAL,bus,13.05022,80.09929,0.005265317609503228
bus_ZFKsyBay,NEMILICHERI,bus,13.1244,80.05054,0.0052534285126758905
bus_RBBxesxu,RAMARATHNA THEATRE AVADI,bus,13.11717,80.09649,0.005249454181352724
bus_21a5199393614efea35a6086f61b0d35,MALAI PATTU,bus,12.93018,80.00281,0.005249404805754079
bus_yZyJFPWz,SAIDAPET MASOODHI ST,bus,13.02042,80.21951,0.005239167944915024
bus_LKVeVUNI,MMDA COLONY ROAD JUNCTION,bus,13.06516,80.21087,0.0052338603730403225
bus_wULIWnbW,PANDITHAMEDU VILLAGE,bus,12.66353,80.17755,0.0052333048814826
bus_oFLgHrco,TIDEL PARK,bus,12.99129,80.25052,0.005226295193709023
bus_7bb9718a5c1bfa28ee3135017a1b6c1c,ATHIPET JUNCTION,bus,13.08777,80.1614,0.005218920838165396
bus_aHDoehBY,GANDHI NAGAR WEST,bus,13.19671,80.16095,0.00521755468428151
bus_KCqeuCwW,WIRELESS COMPANY KALLIKUPPAM,bus,13.13202,80.1649,0.0052172546752060935
bus_WtPVEKaC,TEYNAMPET METRO RAILWAY STATION,bus,13.03711,80.24656,0.005215831011653257
bus_owFNQNZv,NERKUNDRAM,bus,13.07141,80.18551,0.0052137909944652274
bus_99,KUMANANCHAVADI,bus,12.549663,80.143925,0.005210451790765805
bus_rJvLUxkA,MADHA ENGINEERING COLLEGE,bus,12.99458,80.08555,0.005190845225016664
bus_tWpVdCtj,ERUKKANCHERI TOLL GATE,bus,13.12211,80.2512,0.005185219379700579
bus_mZFKHZkN,NANDAMBAKKAM,bus,12.98385,80.06254,0.005182302090499309
bus_knCDNjnp,IIT MADRAS OR GUINDY NATIONAL PARK,bus,13.0068,80.23998,0.0051821971785242
bus_pXlenLUq,PAMAL KRISHNA NAGAR,bus,12.97286,80.13834,0.005181871603124163
bus_cKlxsEIa,PADAPPAI,bus,12.88632,80.02102,0.005167601681748142
metro_147_1,New Washermenpet,metro,13.13402268,80.29274409,0.005167353300382746
bus_IuRRuHdp,MANALI M.F.L LABOUR GATE,bus,13.16979,80.27197,0.005158499349695189
bus_ixunSlAs,KAKKALUR INDUSTRIAL ESTATE,bus,13.13418,79.93316,0.005150818010862029
bus_1428,THATHAMANJI,bus,12.549663,80.143925,0.005149239938898222
bus_dJdTBATy,KEELMANABEDU,bus,13.06412,80.04512,0.005148750075427262
bus_diQHouff,THIRUPORUR THANDALAM,bus,13.01541,80.00402,0.005145919961080469
bus_1e738af58086437f694911385a98c21c,MEDAVAKKAM KOOT ROAD,bus,12.92064,80.18394,0.005139268071018085
bus_CSwPNDqz,PUDUCHATRAM,bus,13.08934,80.00927,0.00513861599577631
bus_fdb33bf798d945635fc780360a9cf158,CHETPET,bus,12.92493,80.01239,0.005133920536784307
bus_zttQgzJF,NANDAMBAKKAM KALAIGNAR NAGAR,bus,12.98097,80.05698,0.005120830954299772
bus_xsVxMJpx,A.V.I.T COLLEGE PAYYANUR,bus,12.65715,80.17662,0.005117820612512828
bus_vPrJwoLq,REDHILLS PAMMATHUKULAM,bus,13.19616,80.16357,0.005102070415311738
bus_goRcVeQH,SIKKARAYAPURAM UZHAVAR SANTHAI,bus,12.99674,80.09158,0.005075360956046891
bus_srZucbpJ,ROYAPURAM RAILWAY STATION,bus,13.10549,80.29477,0.005075068245225733
bus_ArHpJhVJ,VYASARPADI SHARMA NAGAR,bus,13.12037,80.25476,0.005069735110730807
bus_XbgiSLmy,MUTHAMIL NAGAR PALLAVARAM,bus,12.97153,80.14242,0.005066387334154391
bus_SEcoeimf,NAVALUR,bus,12.84471,80.22681,0.005055787205628154
bus_bIhgcGjB,IMA COLLEGE PUDUCHATRAM,bus,13.08708,80.01645,0.005043764279917363
bus_qQJgvOFz,SHOLINGANALLUR KUMARAN NAGAR,bus,12.87765,80.22672,0.00504365447549586
bus_JKUDRqIp,THANNEER KULAM RAMAPURAM,bus,13.13288,79.94527,0.005035333741892257
bus_BJDTCJYP,GOVARDANAGIRI,bus,13.09841,80.10839,0.00503524262234361
bus_EIcIoHUO,MATHUR 100 FEET ROAD JUNCTIION,bus,13.17433,80.23848,0.005034638124597851
bus_hEihXJEh,THANDALAM KOOT ROAD,bus,13.01847,80.01073,0.0050304356921106975
bus_qgzMfcCH,IMA COLLEGE PUDUCHATRAM,bus,13.08695,80.01697,0.005023131726806539
bus_QkCkRebE,NUNGAMBAKKAM RAILWAY STATION,bus,13.06644,80.23148,0.005022605532137001
bus_tTjpyeuP,SHOLINGANALLUR PONNIAMMAN TEMPLE,bus,12.88575,80.22699,0.005020351075366315
bus_WGGanwZU,VYASARPADI AMBEDKAR COLLEGE,bus,13.11848,80.25972,0.0050194347436863405
bus_iFderoVa,VAIKADU,bus,13.1843,80.26981,0.005019048206574426
bus_3a9a3eb0a09af9eec450443c53e0608c,PUSHPAGIRI,bus,12.91942,80.02513,0.005018436267814535
bus_CFztBFJQ,MADHAVARAM CHINNA BYPASS,bus,13.15881,80.22594,0.005013331604499599
bus_BIoUkdqn,MANIMANGALAM ROAD JUNCTION,bus,12.91662,80.04263,0.005009552862509168
bus_hasgHIpb,NANTHAVANAM ALAGESA NAGAR,bus,12.98263,80.06005,0.00500534668533
bus_zWZbZUaa,KILAKONDAIYUR KESAVA CROSS ROAD,bus,13.16466,80.03144,0.0049959499531007185
bus_xZJHlSqM,WAR MEMORIAL,bus,13.07303,80.28583,0.004992109272458131
bus_jUExBSiR,GANDHI NAGAR REDHILLS,bus,13.19521,80.16821,0.004986586146341967
bus_ylfNfbjf,KODAMBAKKAM MEENAKSHI COLLEGE,bus,13.05404,80.22791,0.0049854143177555
bus_nLuZmKFz,PONNERI SIDDHI VINAYAGAR TEMPLE,bus,13.26338,80.1435,0.004966671615452728
bus_EDdQplwd,PALLAVARAM AADU THOTTI,bus,12.97067,80.14496,0.004950903065184619
bus_yrWAEsGy,WOMENS POLYTECHNIC COLLEGE THARAMANI,bus,12.99826,80.24897,0.0049499767146830185
bus_uGkwFELU,KOVILPADAGAI ROAD JUNCTION,bus,13.13316,80.10317,0.004931264507979976
bus_exRzHfND,PUDUCHATRAM,bus,13.08935,80.00922,0.004928280010947591
bus_YeMdKIsv,PONNUSWAMY NADAR COLLEGE OF ARTS AND SCIENCE,bus,13.1336,79.95397,0.0049198494729224855
bus_VMzKgUSR,IYANKULAM,bus,13.09361,80.1085,0.004919758353373839
bus_UgdUAhSn,KAIVELI,bus,12.96305,80.21585,0.004918963353003818
bus_zjKBXJki,KUTHAMBAKKAM SAVEETHA MEDICAL COLLEGE,bus,13.02231,80.01688,0.004914951423140926
bus_eusqYKWT,PORUR SHAKTHI NAGAR,bus,13.03153,80.16505,0.004911929765376407
bus_1471,P1.PULIYANTHOPE POLICE STATION,bus,12.549663,80.143925,0.00490679114901312
bus_qFzqwYZZ,CHEPPAKAM,bus,13.0613,80.28285,0.00490399267961606
bus_ywNJwhFn,MANIMANGALAM POLICE STATION,bus,12.91617,80.03974,0.004902951998844763
bus_JYRWJgVB,MANJAMPAKKAM OR PETROL PUMP,bus,13.1632,80.22777,0.004897847335529827
bus_EFeZyZmg,MADIPAKKAM BALAJI NAGAR,bus,12.97832,80.20394,0.004882946657737124
bus_WoGcbRgz,PAKKAM NEW COLONY,bus,13.1596,80.03401,0.004880465684130947
bus_IjwJTwcG,KARASANGAL ERIKARAI,bus,12.89855,80.04098,0.004874821215377767
bus_FltmFbyo,REDHILLS ALAMARAM,bus,13.19438,80.17457,0.004871101877372195
bus_TtVVOWLP,PALAVOYAL,bus,13.19547,80.18536,0.004853134822229901
bus_637,M.G.R.NAGAR,bus,12.549663,80.143925,0.0048482371616466215
bus_513,NAZARATHPET,bus,12.549663,80.143925,0.004844716100852474
bus_ixUxTFtC,THIRUVANMIYUR DEPOT,bus,12.98733,80.25963,0.004842379597677203
bus_FjwhCXAK,GUDUVANCHERI EB OFFICE,bus,12.85136,80.06566,0.004833226403454657
bus_FYonLsVT,COLLECTOR NAGAR T S KRISHNA NAGAR,bus,13.08809,80.18379,0.004827535040275739
bus_CVcknAiw,AVADI BHARATHIYAR NAGAR,bus,13.12849,80.10355,0.004825678356982651
bus_75,JAMALIA,bus,12.549663,80.143925,0.004823805253372774
bus_uOqLwBTJ,PACHAIYAPPAS COLLEGE,bus,13.07681,80.2338,0.004820434965914653
bus_oQmOaQyB,KATTUR,bus,12.73489,80.13779,0.004812841927637447
bus_bDgEiJAh,MADHAVARAM CHINNA BYPASS,bus,13.15851,80.22603,0.004807292808109572
bus_JScPHHNr,SRINIVASAPURAM,bus,12.84026,80.0557,0.004804373970547121
bus_fAHeYbsJ,THOZUVUR,bus,13.13226,79.95873,0.004804365203952714
bus_GJEXlFdt,PARUTHIPATTU ROAD JUNCTION,bus,13.08655,80.10869,0.004804274084404066
bus_DpfRSiIE,THIRUMAZHISAI TEMPLE,bus,13.05455,80.06156,0.004802297268517947
bus_EdJUuxct,ERUKANCHERRY,bus,13.12462,80.24718,0.004796479626990628
bus_1189,KARASANGAL,bus,12.549663,80.143925,0.004795899359101591
bus_147,POONAMALLEE B.T,bus,12.549663,80.143925,0.004787972135921164
bus_uXfULbYP,GUDUVANCHERI WIPRO,bus,12.83711,80.05569,0.004777908825574882
bus_XMWgellz,PADI LUCAS T.V.S,bus,13.10111,80.1899,0.004777551574671101
bus_zjGRmLyo,D B JAIN COLLEGE,bus,12.94691,80.24002,0.004774587378207772
bus_62d1874f,VANDALUR GATE,bus,12.89319,80.08625,0.004766165442207391
bus_AFcMAvOI,PADIYANALLUR ELITE MATRICULATION HIGHER SECONDARY,bus,13.19514,80.17705,0.004765395159980867
bus_NxijJQZJ,PAKKAM JUNCTION,bus,13.15498,80.03727,0.004764981415161175
bus_e164a7f9f29faab8567d8aef9560b5eb,AMBATTUR TELEPHONE EXCHANGE,bus,13.10134,80.16247,0.004754970218066857
bus_lsBVGYKC,PORUR SHAKTHI NAGAR,bus,13.03147,80.16486,0.004747783398779166
bus_916,KUNDRATHUR MURUGAN TEMPLE,bus,12.549663,80.143925,0.0047450959066810934
bus_pZulUpHT,VYASARPADI M K B AMBEDKAR,bus,13.1248,80.25922,0.004740551951820602
bus_veAXvdUO,BALAJI NAGAR MEDAVAKKAM,bus,12.95394,80.21223,0.004736945750908562
bus_EZxvwLQu,KANDIGAI GOVERMENT HIGH SCHOOL,bus,12.85481,80.14253,0.004729929615849229
bus_tOhgfmkj,GUDUVANCHERY AKSHAYA APARTMENTS,bus,12.85449,80.06794,0.0047177421344848855
bus_GnsXgGJX,EGMORE HOTEL EVEREST,bus,13.08074,80.26811,0.004713561603479343
bus_yHaTCNJc,KOLATHUR JUNCTION,bus,12.81817,80.16045,0.004704621930456533
bus_154,RAMAPURAM,bus,12.549663,80.143925,0.004701038506910793
bus_jJqyLkNG,SOMANGALAM,bus,12.94932,80.03234,0.004700452371434015
bus_voXQjjKh,MOGAPPAIR GOLDEN FLATS,bus,13.08827,80.17839,0.0046994931386463825
bus_IMTItMKU,KALLIKUPPAM,bus,13.13221,80.17192,0.00469757546484212
bus_ZxAfSTio,ILLALUR,bus,12.7338,80.15729,0.004697357658667675
bus_Fwqgdxfa,MGR SALAI NUNGAMBAKKAM OR PLAM GROVE,bus,13.05331,80.24806,0.0046919415267262735
bus_1173,THANDALAM,bus,12.549663,80.143925,0.004691267438041844
bus_hNkOvWXQ,VELLAKULAM JUNCTION,bus,13.13874,79.9687,0.004688880934982942
bus_170,GOVT ESTATE METRO R.S,bus,12.549663,80.143925,0.004687363143052215
bus_qDNcQeuw,KUNDUMEDU,bus,13.05147,80.0652,0.004686812999548175
bus_New502,VENGALKUPPAM,bus,13.25182,80.03547,0.004684187714599796
suburban_MTMY_P_2,THIRUMAYILAI,suburban,13.03541,80.267473,0.004683762254533978
bus_90,KILPAUK GARDEN,bus,12.549663,80.143925,0.004681310039180804
bus_177,TAMBARAM SANATORIUM,bus,12.549663,80.143925,0.0046768288044361315
bus_aPCwoaUD,PALAVOYAL,bus,13.19547,80.18537,0.0046755486467178935
suburban_HC_P_1,HINDU COLLEGE,suburban,13.118654,80.074979,0.004668950074250719
bus_XJRnAJHc,THIRUVANMIYUR MARUDEESWARAR TEMPLE,bus,12.98513,80.25967,0.004661775897691999
bus_oRUBDfuD,SHOLINGANALLUR PONNIAMMAN TEMPLE,bus,12.88606,80.22673,0.00466083312042671
bus_VtPnVtjF,NALLUR CHECK POST,bus,12.96923,80.03239,0.004655324618050619
bus_wRYiQgEn,ANAIKATTU,bus,13.22875,80.02666,0.004655091801063424
bus_nUYnioIh,BINNY MILL CANTEEN,bus,13.10274,80.25273,0.004650887960913169
bus_OpqnHslm,MELAPPEDU,bus,13.1515,80.03952,0.004649497146191403
bus_f1873888,PERUNGALATHUR IRANIYAMMAN TEMPLE,bus,12.89739,80.08938,0.004649200605686724
suburban_VEU_P_1,VEPPAMPATTU,suburban,13.123821,79.998751,0.004648324079786141
bus_88,KELLYS,bus,12.549663,80.143925,0.00464370684603452
bus_MFfExqBx,PATTABIRAM V.A.O OFFICE,bus,13.12025,80.0676,0.004628054281811499
bus_NdHXpyCv,CHETTIPEDU,bus,13.02442,80.02357,0.004626240750716496
bus_aAfSzptC,KODUNGAIYUR T N E B OFFICE,bus,13.13142,80.25843,0.004625067682850829
bus_ufLmazVu,PERAMBUR RAILWAY STATION,bus,13.10856,80.24484,0.004621436249236913
bus_nuxwLmjk,VENGADAMANGALAM CHILDRENS PARK,bus,12.86539,80.14989,0.0046144453468794575
bus_Ngsxsfae,NAZARATHPET POLICE CHECK POST,bus,13.0458,80.07075,0.004613771667037379
bus_iBiVOFur,CHETPET,bus,13.07036,80.24204,0.0046110886362484855
bus_hmRIiXJy,PALAKKA COMPANY,bus,12.85681,80.06969,0.004602257865515114
bus_sxnLITXs,EGATTUR,bus,12.83721,80.22812,0.00459264972483588
bus_qnxnYECs,VIRUGAMBAKKAM NATESAN NAGAR,bus,13.05735,80.19418,0.004590411687135585
bus_aDaRCcaB,ANDARKUPPAM CHECK POST,bus,13.19232,80.26957,0.004590317287591955
bus_aPKnTaHY,SHIVA TEMPLE KATTUR,bus,12.73334,80.16142,0.0045818733896979035
bus_143,GOVT ESTATE METRO R.S,bus,12.549663,80.143925,0.004576389010604335
bus_UTtjkhMN,VEERAPURAM,bus,13.18458,80.08437,0.004575740581980781
bus_New449,KILAMBAKKAM WATER TANK,bus,13.13513,79.94794,0.00457339666601317
bus_RBVPcVzH,METTUPALAYAM MARKET,bus,13.02853,80.21991,0.00457253774051801
bus_New207,MAMPALLAM,bus,13.25285,80.02734,0.004568703445630024
bus_NcLanIdZ,S R B COLONY,bus,13.11856,80.2261,0.004566618587118888
bus_gRVxNCAP,GANDHI NAGAR,bus,13.09734,80.21682,0.004566558152935674
bus_VgUdLlOW,CHROMEPET MIT GATE,bus,12.94706,80.13702,0.004562955867975511
bus_ffjXMuak,PALLAVARAM MARKET,bus,12.96969,80.14753,0.004560724462385254
bus_eaNsVWDR,TAMBARAM SANATORIUM BUS STAND,bus,12.93708,80.12806,0.004555107077847855
bus_WUWIxCFc,THIRUVALLUVAR NAGAR RTO,bus,12.97667,80.25913,0.004546291628722227
bus_1275c1c68d6991440752765d52b1130a,MADURAVOYAL MARKET,bus,13.06298,80.16703,0.004541710155871496
bus_SwLVnWPq,MADURAVOYAL MARKET,bus,13.06288,80.16699,0.004541710155871496
bus_QFkvaGqn,PALAVEDU SRI PATHI NAGAR,bus,13.14502,80.03814,0.004534012877221632
bus_WqRwmxfX,MANAPAKKAM,bus,13.1633,80.22441,0.004522502777465489
bus_New73,CHOLA MANDAL,bus,12.92433,80.25125,0.004519863706977432
bus_bfKiOFsS,THANDURAI PALLA STREET,bus,13.11283,80.06233,0.004512520828325053
bus_New96,AAYA KOLATHUR,bus,12.9912,79.93468,0.004506772027186686
bus_KwXNMHkb,MANALI NEW TOWN,bus,13.20805,80.27063,0.004504638101427331
bus_QEnOoljA,KANNADAPALAYAM JUNCTION,bus,13.15451,80.09929,0.00450398818537005
bus_LASpLrUw,MADIPAKKAM ROAD JUNCTION,bus,12.96844,80.18965,0.00449176106646659
bus_qvujbmjR,PURASAIVAKKAM TANK,bus,13.08559,80.25375,0.004490577324765966
bus_New63,URAPAKKAM TEA SHOP,bus,12.86209,80.07335,0.004486773596545342
bus_PRzaSxQc,THANDURAI,bus,13.11584,80.06328,0.004479208058429927
bus_TIlepZYr,THIRUNINRAVUR BUS TERMINUS,bus,13.12457,80.03241,0.004470290532005523
metro_144_2,Thiruvotriyur Theradi,metro,13.15976007,80.30221762,0.004469586433914251
bus_aRCjtsfP,THIRUPORUR TEMPLE,bus,12.73041,80.18881,0.004466389120728132
bus_laDYeHNU,PAPPANCHATHIRAM,bus,13.03277,80.03725,0.004462185479479279
bus_GDiQpvtB,DUNLOP AMBEDKAR STATUE,bus,13.10722,80.15178,0.004461554730543231
bus_FZjXRNIl,MUTHAMIZH NAGAR OR AMBEDKAR STATUE,bus,13.13411,80.25354,0.004458837362722998
bus_ZJxogzZw,KANDHASWAMI TEMPLE TANK THIRUPORUR,bus,12.72491,80.18794,0.004458739521715177
bus_NwMeBpFQ,KILAMBAKKAM JUNCTION,bus,13.14562,79.96651,0.004457912397043399
bus_New518,VENGAL MULUTHOPU,bus,13.25269,80.0145,0.004453219176660252
bus_New467,VYASARPADI WATER TANK,bus,13.11698,80.26205,0.004451566939911622
bus_SyrqOGJb,KOLATHUR ANNA SALAI,bus,13.12074,80.22411,0.004451134318149116
bus_grMhZquG,PERUNGAVUR NAGATHAMMAN TEMPLE,bus,13.20143,80.21959,0.004441828082882685
bus_OdzEGWPG,KOTTIVAKKAM,bus,12.9694,80.25772,0.004430807359752455
bus_BYVXItej,KORATTUR BUS TERMINUS,bus,13.11142,80.18439,0.004430205928145479
bus_nunLDRbE,GOVERNMENT SCHOOL SHOLINGANALLUR,bus,12.89455,80.22743,0.0044298645824871665
bus_KGIBfEut,SIRUKALATHUR KOZHI PANNAI,bus,12.99441,80.07502,0.004422972766821971
bus_591,PAMMAL,bus,12.549663,80.143925,0.004422969953296202
bus_qRqIHRjS,PALAVEDU NASHIK NAGAR,bus,13.14207,80.03805,0.00441852860825186
bus_rUKSlFeh,SIKKARAYAPURAM UZHAVAR SANTHAI,bus,13.11533,80.14773,0.004415812023438069
bus_WynPMslR,PERUNGUDI S.R.P TOOLS,bus,12.97857,80.25265,0.004409850530606408
bus_buRRNGGe,PERUMAL NAGAR JUNCTION,bus,13.06573,80.13769,0.004393600397033283
bus_f0cbe11c9af97d64ece9dd45d52489eb,KOVALAM KELAMBAKAM ROAD JUNCTION,bus,12.78519,80.24536,0.004389358387121933
bus_qzPLXpkx,BHAKTAVATSALAM MEMORIAL COLLEGE,bus,13.10817,80.18376,0.004388418671601904
bus_1259,KARUMANOOR KANDIGAI,bus,12.549663,80.143925,0.0043880107911251015
bus_dbBlyJgh,KANNAPALAYAM KOOTROAD,bus,13.0888,80.09195,0.004385500993805811
bus_yfIoPTHo,PERUNGUDI,bus,12.95948,80.24484,0.0043737097177112315
bus_697,KALPANA LAMPS,bus,12.549663,80.143925,0.004370112275537463
bus_137,PALLAVARAM,bus,12.549663,80.143925,0.004364846715096821
bus_RufmISTr,CHINMAYA NAGAR,bus,13.06291,80.19711,0.004359443149196042
bus_oLzlCKof,NAVALUR CHURCH,bus,12.83316,80.22878,0.004357662789665712
bus_vcCubJJz,MADAMBAKKAM ANNA NAGAR,bus,12.90675,80.15942,0.004351796111738252
bus_NJLhSMnp,JANAPANCHATRAM KOOT ROAD JUNCTION,bus,13.26187,80.15514,0.0043492958446135575
bus_2eb44a49e44b44db27f3cebab30994e6,JANAPANCHATRAM KOOT ROAD JUNCTION,bus,13.2619,80.15538,0.0043492958446135575
bus_JfDYhvZz,THOTTIKALAI,bus,13.14621,79.98128,0.004342428128073626
bus_oSOvYxXQ,CHOOLAI ROUNTANA,bus,13.09126,80.26949,0.004331374254455057
bus_BoavYDPS,VELLAVEDU COCA COLA COMPANY,bus,13.07126,80.03321,0.004330226112987908
bus_NQsRzhNW,KANNIAMMAN PETTAI VICHOOR,bus,13.19169,80.2548,0.004314929343127685
bus_MkXEUCdM,VAANAGARAM,bus,13.06041,80.15497,0.004314674837009348
bus_e287e08c779c787be10c3974b2a13db3,VANDALUR GATE,bus,12.89319,80.08625,0.004314439952534957
bus_XDHbYGPc,BALAJI NAGAR THIRUNINDRAVOOR,bus,13.13843,80.03876,0.004303044339282088
bus_TeSdyMFH,NATTHAMEDU,bus,13.13339,80.03655,0.004300329965438782
bus_721,GURUVOYAL KARANIBATTAI,bus,12.549663,80.143925,0.004296133845007272
bus_vHkAlmCm,PERUNGUDI  I G P,bus,12.97274,80.2503,0.004294366261636636
bus_45,DOVETON,bus,12.549663,80.143925,0.004293584824571346
bus_vkWqgNph,ALINJIVAKKAM,bus,13.26835,80.1532,0.004293584207279457
bus_1473,PERAMBUR MARKET,bus,12.549663,80.143925,0.0042930577185660915
bus_547d5e01606931b5afaded23207bfd6b,LIC,bus,13.0652,80.26768,0.004285056604989515
bus_qZEGKKCp,PALLAVARAM,bus,12.9676,80.14904,0.004275231276861829
bus_mEEGNlDG,PALLAVARAM AADU THOTTI,bus,12.97057,80.14517,0.004270656251692649
bus_cniBuICf,VANAVIL,bus,13.04148,80.24749,0.004265302855903648
bus_OBtWrzof,MADIPAKKAM ROAD JUNCTION,bus,12.96847,80.18957,0.004264637804982379
bus_FaHpkwNs,SEEVARAM,bus,12.95104,80.24124,0.004264103541555506
bus_JyEnLYHy,THIRUPORUR THANDALAM,bus,12.7151,80.18769,0.004264034546576188
bus_FYgdoWMK,ANAKAPUTHUR AMMAN TEMPLE,bus,12.98324,80.12771,0.004262671236175374
bus_YBtfPRlp,BETHAL NAGAR,bus,12.92476,80.25115,0.004259932375347183
bus_AayEawbi,PARUTHIPATTU ROAD JUNCTION,bus,13.08684,80.10861,0.004244034836591933
bus_ykEzhWPm,RAJAKILPAKKAM,bus,12.92263,80.15187,0.00423631184276848
bus_xGsoSfhX,ROHINI THEATRE,bus,13.07509,80.19556,0.004231343413950623
bus_DYvQviUy,ADYAR SIGNAL,bus,13.00721,80.25882,0.004229754593098624
bus_vEvIjqMc,SIRUKALATHUR SRI CHELLIAMMAN TEMPLE,bus,13.14228,79.98971,0.004226943859103854
bus_1087,MAGARAL KANDIGAI,bus,12.549663,80.143925,0.0042225358266359675
bus_yCXbqkBs,KIZH PADAPPAI,bus,12.88869,80.02919,0.00422244679177292
bus_AQHsowCO,VANIYANCHAVADI PADMA ADARSH SCHOOL,bus,12.82635,80.2313,0.004219653029079133
bus_okgTpqCg,NOOTHENCHERI,bus,12.89775,80.16718,0.004216261300398381
metro_145_1,Kaladipet,metro,13.15090825,80.29963587,0.004214620965094459
bus_isWzWnoW,PADI BRITANNIA,bus,13.09825,80.18067,0.004214320114878941
bus_159,SAIDAPET,bus,12.549663,80.143925,0.004200551422778088
bus_174,S.R.P TOOLS,bus,12.549663,80.143925,0.0041999510584506536
bus_YiexuWUO,ARIYALUR BUS STOP,bus,13.19114,80.2519,0.004199445074157911
bus_JGydtICe,METTUKUPPAM,bus,12.93923,80.2356,0.004197166033358913
bus_QgwCgjAi,PANAGAL PARK,bus,13.04214,80.23314,0.004188018752269889
bus_208,VANAGARAM,bus,12.549663,80.143925,0.0041830285754398296
bus_GnOurcjN,KANDANCHAVADI,bus,12.96532,80.24753,0.004178881992666864
bus_EonJeQKz,ATHIPEDU,bus,13.27452,80.15102,0.004178099938309685
bus_60b99e7a36a77d6ba7d6f3eeadf98829,EXPRESS AVENUE,bus,13.06048,80.26548,0.004172106479441478
bus_VFLsoIHD,THIRUMULLAIVOYAL VAISHNAVI NAGAR,bus,13.13024,80.12563,0.004162036801714165
suburban_KOTR_P_2,KORATTUR,suburban,13.11326,80.184464,0.0041599345349821884
bus_GTWLqqnN,KOVILAMBAKKAM,bus,12.93951,80.18261,0.004159106059242501
bus_itmFNPnQ,MUTHAMIL NAGAR PALLAVARAM,bus,12.9715,80.14255,0.004155171982722877
bus_DpeufCiu,PERUNGUDI,bus,12.95883,80.2443,0.0041486192725857345
bus_VyooPFNZ,SIDCO INDUSTRIAL ESTATE ALATHUR,bus,12.69439,80.18115,0.004148550277606416
bus_bjEpkupt,ANAKAPUTHUR HIGHER SECONDARY SCHOOL,bus,12.9808,80.1292,0.004147186967205602
bus_vfRjIFnr,SELVAM SCHOOL,bus,13.10539,80.09365,0.004143589074756322
bus_aPJTsXBo,EGMORE COURT,bus,13.07372,80.2617,0.004138262925177235
bus_IvqxNjHK,WELDING SHOP KOLATHUR,bus,13.12406,80.22208,0.004136760474842517
bus_oAltlCRB,MADAMBAKKAM E.B,bus,12.90075,80.16154,0.00412921745658711
bus_MyVorJBj,IYANKULAM,bus,13.09406,80.1084,0.004128550567622161
bus_zAwPDfkg,T.NAGAR PERUMAL TEMPLE,bus,13.03562,80.23685,0.004126421994575855
metro_113_1,Guindy,metro,13.00936883,80.21343944,0.004119573455538909
bus_GMrJWgHs,SHOLINGANALLUR KUMARAN NAGAR,bus,12.87793,80.22701,0.00411910193741009
bus_xkdRvtRu,PURASAIVAKKAM TANK,bus,13.08366,80.25458,0.0041183140685034135
bus_tSUFrefk,ROYAPETTAH HOSPITAL,bus,13.05444,80.26439,0.004114604349656788
bus_BtOUMROM,MOORAI ANNA NAGAR,bus,13.173,80.09133,0.0041138035061016945
bus_ISsnXLUH,AYATHUR CHATHIRAM,bus,13.13731,79.99378,0.004111459590134083
bus_YqlTLIQa,PERUNGALATGUR LAKE VIEW STOP,bus,12.90886,80.09852,0.004108917620717995
bus_NmJVuAxS,THIRUMULLAIVOYAL,bus,13.13081,80.13108,0.004104105967443378
bus_705,PANJETTI,bus,12.549663,80.143925,0.004101531845952863
bus_ByhOWHwN,KENDRIYA VIDYALAYA MINAMBAKKAM,bus,12.99195,80.18511,0.004099449779054133
bus_GkYZbgqg,THIRUMULLAIVOYAL SARASWATHI NAGAR CTH SALAI,bus,13.1281,80.13972,0.004098320172056633
bus_cQHgTjKq,ICE FACTORY,bus,12.95408,80.25521,0.00408435455284314
bus_EiybrpzE,KOSAPUR PERIYAR NAGAR,bus,13.19258,80.23843,0.00408396080518814
bus_OjBZWzOO,TAMBARAM MUDICHUR KOOT ROAD,bus,12.95446,79.95727,0.0040822093639193945
bus_520,INDIRA NAGAR,bus,12.549663,80.143925,0.004071249022274061
bus_New26,NUNGAMBAKKM I.D.M,bus,13.06779,80.25338,0.004068723652033683
bus_dRrSajqk,SAIDAPET MARKET,bus,13.02188,80.22415,0.0040633316102261455
bus_kXOxEoFm,VELACHERY RAILWAY STATION,bus,12.96713,80.21761,0.0040630577225311
bus_eymgjBxV,PANCHETTI,bus,13.28647,80.14879,0.004062615669339914
bus_kPfQKpcS,THIRUPORUR ALATHUR,bus,12.69119,80.18051,0.00404139556101716
bus_ffHVhHJj,PAMAL KRISHNA NAGAR,bus,12.97272,80.13867,0.004039687713753105
bus_1456,SIDCO ESTATE PHASE II,bus,12.549663,80.143925,0.004035112999878484
bus_gxlaiARP,PAMMAL THEATRE,bus,12.9777,80.13059,0.004031702698235831
bus_kEIvmolg,AVADI VGV NAGAR,bus,13.10158,80.09146,0.004028104805786551
bus_XjEyEHqT,MOOGAMBIGAI KOLATHUR,bus,13.126,80.21949,0.004021276205872745
bus_wytfkJEy,THIRUMANGALAM METRO,bus,13.08524,80.20119,0.004017348998410798
bus_STKMtPtJ,GOVARDANAGIRI,bus,13.09847,80.10831,0.004013066298652389
bus_XWLETkPz,PALLIKARANAI SRI NAGAR,bus,12.94865,80.20327,0.0040120898378280595
bus_BNQPEsdW,SALT OFFICE,bus,12.78213,80.22945,0.0040064683600880445
bus_ZIPCqImv,MOULIVAKKAM BAI KADAI,bus,13.02057,80.14403,0.004004140660846594
bus_Hjpeultj,THAMARAIPAKKAM JUNCTION,bus,13.22057,80.02852,0.004003528370308565
bus_ZtKBYERA,NEW VELLANUR SRBHARATHI NAGAR,bus,13.17028,80.09572,0.003998319237131922
bus_owqgejgM,KUMANANCHAVADI,bus,13.04505,80.11561,0.003997459286811463
bus_4719b4817bee35bef3e6e45c044609f8,EACHANGADU JUNCTION,bus,12.94917,80.18552,0.003996592261812087
bus_OgnAStiZ,THIRUMULLAIVOYAL MANIKANDAPURAM,bus,13.13055,80.13633,0.0039886216984736066
suburban_GDY_P_4,GUINDY,suburban,13.00828343,80.21249612,0.003985506391541228
bus_gcvwQKzE,VELLAVEDU COCA COLA COMPANY,bus,13.07117,80.03319,0.0039808656585710025
bus_RIVMQHVF,NADUKUTHAGAI,bus,13.12987,80.03522,0.003973700312960888
bus_wGTdgRcU,NEELANKARAI,bus,12.95064,80.25506,0.003968870283873369
bus_GdpNupee,THEYAMPAKKAM,bus,13.19775,80.22873,0.003968476536218369
bus_UAwQbGIv,PONNERI OLD BUS STAND OR PONNERI MARKET,bus,13.33544,80.19044,0.003965010120261257
bus_MMfKYZmE,WALAJABAD RAILWAY STATION,bus,12.79757,79.81932,0.003963894535324059
bus_POeaLshN,KIZH PADAPPAI,bus,12.8886,80.02927,0.003962706575760246
bus_oUmVLfUX,MADHAVARAM BYPASS,bus,13.14125,80.21848,0.00395751629425576
bus_DKWSfiEo,PUDUPPAIR,bus,12.97404,80.04521,0.003953780243819607
bus_sonNAVmZ,MANALI M.F.L,bus,13.17761,80.27012,0.00395281441529397
bus_qqDoWQdv,THACHUR KOOT ROAD JUNCTION,bus,13.29662,80.14766,0.003947131400370142
metro_111_1,Saidapet,metro,13.02402718,80.2286365,0.003942645633207015
bus_fSmTHZJS,NUNGAMBAKKAM RAILWAY STATION,bus,13.06658,80.23144,0.003939701141541324
bus_ndVUpTXG,METTUPALAYAM EMERALD PARK,bus,13.07465,80.09982,0.0039393566384696
bus_EkWBPXmr,BROADWAY,bus,13.08833,80.28388,0.003935596867188412
suburban_MPKT_P_2,CHENNAI PARK TOWN,suburban,13.079588,80.277502,0.003932158142567765
bus_eTPMYwkC,SHANMUGAPURAM,bus,13.14075,80.18084,0.003931367854855974
bus_1709,VELTECH RD.JN,bus,12.549663,80.143925,0.003930128551806788
bus_bMuZdODl,GUDUVANCHERI THROPATHI AMMAN TEMPLE,bus,12.8313,80.05462,0.003928280477910341
bus_JafVjQhg,VELLAIKAL,bus,12.93135,80.18163,0.003928137521302957
metro_146_1,Tollgate Metro,metro,13.14266249,80.29600255,0.003926897337703959
bus_BGChynOq,PAMMAL,bus,12.97438,80.13529,0.003924203444783333
bus_592c0e5f756a610b6a8ff0eb1403c333,Gandhi Nagar,bus,13.12362,80.05545,0.003919435006323925
bus_1755,VANCHIVAKKAM,bus,12.549663,80.143925,0.0039155074727565105
bus_iEKuRfDT,PERIYAR SALAI,bus,13.0534,80.23682,0.00391402363512947
bus_aHnvxyXJ,VETTUVAKENI,bus,12.9384,80.25267,0.003913479568437868
bus_KttMmUZl,OILCHERY,bus,13.09229,80.08514,0.00391262053681678
bus_1542,ALAGESAN NAGAR,bus,12.549663,80.143925,0.0039118529924693085
bus_HAmwZMhM,SUNNAMBU KOLATHUR,bus,12.94851,80.19536,0.003896605568858288
metro_210_2,Koyambedu,metro,13.07533116,80.19506616,0.003895756023431748
bus_cXzNtQka,THAMARAIPAKKAM,bus,13.21197,80.02928,0.003888044101338794
bus_QNScHwgR,VIRUGAMBAKKAM ELANGO NAGAR,bus,13.05274,80.1921,0.003886584925082353
bus_lyEtzViy,PONNERI SIDDHI VINAYAGAR TEMPLE,bus,13.26345,80.14334,0.003885957262757849
bus_ttCfyKrF,AMARITHAPURAM,bus,13.17192,80.13566,0.00388430545688082
bus_QESMqsTJ,VEL TECH JUNCTION,bus,13.16719,80.09819,0.00388283496816215
bus_gGjwcdJB,PORUR JUNCTION,bus,13.03429,80.15571,0.0038823899767642107
bus_QhiYKyAt,SUNNAMBU KOLATHUR,bus,12.94861,80.19523,0.0038811079928423153
bus_633,MAMBAKKAM,bus,12.549663,80.143925,0.0038753717175113666
bus_UTBcifAN,DMS,bus,13.04695,80.24829,0.0038702232981561624
bus_SDEQaVyD,THANDALAM SHRI NAGATHAMAN TEMPLE,bus,13.00015,80.09744,0.003867797842207751
bus_NnzcSqlk,MEDAVAKKAM KOOT ROAD,bus,12.92028,80.18382,0.003857746275709016
bus_meZHMfSd,BHUARI HOTEL,bus,12.94211,80.25332,0.0038533860149035965
bus_OeXJgkRW,KANNAMPALAYAM,bus,13.19956,80.22614,0.0038529922672485973
bus_RFaTWaew,KANNAGI STATUE OR PRESIDENCY COLLEGE,bus,13.05766,80.28156,0.003845551323764565
bus_hPGLMLbU,THIRUNINRAVUR SRI LAKSHMI THEATRE,bus,13.12624,80.03118,0.0038434103684821717
bus_182,THANDALAM RD.JN,bus,12.549663,80.143925,0.0038428339374448036
metro_209_2,Thirumangalam,metro,13.08499774,80.20220918,0.0038415629675465405
bus_gRoGYEAJ,MEDAVAKKAM GOLD WINNER,bus,12.90207,80.18405,0.0038349721386272593
bus_UGBWqSzR,INDRA COTTON MILL,bus,12.94328,80.13871,0.003830195940189771
bus_mklbELhb,EGMORE HOTEL EVEREST,bus,13.08066,80.26771,0.003825937369468857
bus_bmCACwpU,PARIVAKKAM EP,bus,13.0656,80.09657,0.0038238723694998277
bus_ZPJGdbAJ,RED HILLS THIRUVALLUR ROAD JUNCTION,bus,13.19628,80.18099,0.0038206150337427333
bus_HkgLsGZV,CAMP ROAD JUNCTION SELAIYUR,bus,12.92216,80.14309,0.0038179755120356226
bus_2416e97400a579384bb67b52a2856a36,NAZARATHPET,bus,13.05244,80.08225,0.0038169190460710252
bus_zTUODYgn,SURAPET SIVAPRAKASAM NAGAR,bus,13.14273,80.18585,0.0038158835858862023
bus_jRLQwoHb,VALLANCHERY,bus,12.83372,80.05484,0.0038127962089405695
bus_ImIhxSnH,NUNGAMBAKKAM VETNARY HOSPITAL,bus,13.05282,80.23977,0.0038063989252687174
bus_VmCBWvEb,KORATTUR UCO BANK,bus,13.10243,80.18652,0.0038040544617089535
bus_xOfEMpYZ,KOLATHUR JUNCTION,bus,12.81822,80.16047,0.0037981408243386357
bus_UWROvtjV,ANNA SALAI BHUARI HOTEL,bus,12.94223,80.25325,0.003797995299468096
bus_DgeiAShx,PALLAVARAM RAILWAY STATION,bus,12.96736,80.15266,0.003789544675364372
bus_GBXucSTR,SAIDAPET MARKET,bus,13.02185,80.22419,0.0037830098998266797
suburban_TRL_P_4,TIRUVALLUR,suburban,13.117196,79.91586,0.003778112276372609
bus_uKbbRztG,NEW AVADI ROAD,bus,13.08,80.23357,0.0037734435725716086
bus_LggEHwJM,INDIRA NAGAR MANNADY,bus,13.20188,80.02949,0.0037725598323690218
bus_IgEBJNwX,SATHYA STUDIO,bus,13.01621,80.25955,0.003771587547255801
bus_uDcqHVPS,SIDCO ESTATE,bus,13.17887,80.13799,0.003768821187911048
bus_New68,VEL TECH LAW COLLEGE,bus,13.16129,80.0997,0.0037673506991923785
bus_wyEQXfIU,PORUR E B OFFICE,bus,13.03063,80.15295,0.003766905707794439
bus_TvsHOuao,PALLIKARANAI SRI NAGAR,bus,12.94873,80.20327,0.0037656237238725436
bus_EcsZBajf,ADYAR OLD DEPOT,bus,13.0065,80.25366,0.003765092144418919
bus_idAQxYim,MADHAVARAM POST BOX,bus,13.14229,80.23675,0.003763684835160451
bus_RIpTuvwk,VILLIVAKKAM KALPANA,bus,13.10326,80.20743,0.00375960568220117
suburban_VJM_P_1,VYASARPADI JEEVA,suburban,13.108968,80.258128,0.003753733013928719
bus_JxFLnqJu,BLUE FACTORY,bus,13.10285,80.15014,0.0037524677237385446
bus_KjiBWoqR,SEKKADU,bus,13.11939,80.07963,0.00375067610926876
bus_slwzdYAd,NEMAM,bus,13.07838,80.02542,0.003749897120631459
suburban_APB_P_2,ANUPPAMBATTU,suburban,13.304406,80.230971,0.003746347433274707
bus_UIFNotIh,VINAYAGAPURAM,bus,13.17856,80.21148,0.003739141314997017
bus_709,PANAPAKKAMEDU,bus,12.549663,80.143925,0.003738431959186391
bus_yTNmoAGc,VETTUVAKENI,bus,12.93851,80.25278,0.0037379017459338248
bus_wbJSAzcX,PALLAVA GARDEN BUS STOP OR DJ MET SCHOOL,bus,12.95189,80.17148,0.003723195843912639
bus_lnzZDlDL,AVADI ROAD JUNCTION,bus,13.29836,80.04849,0.003721625019353229
bus_CyKtNncX,CHROMEPET NEHRU NAGAR,bus,12.94265,80.14051,0.003714711671219999
bus_BjxLEaiN,BANGARAMPETTAI,bus,13.19185,80.08485,0.0037096085647074927
bus_GIlSPhwi,PADIYANALLUR ELITE MATRICULATION HIGHER SECONDARY,bus,13.19506,80.17707,0.003705130764772961
bus_VNEgkeGh,GUDUVANCHERI SIVAJI NAGAR,bus,12.83561,80.05524,0.003704968638506292
bus_88d5a1c3b9f0b243d7ca744b81975709,KOLAPPANCHERY DUKKANAMPATTU,bus,13.06867,80.07232,0.003701434777101253
bus_MQIshiHv,MELPAKKAM,bus,13.08261,80.10886,0.0037014110164120253
bus_eXTEGQHB,SURAPET,bus,13.14421,80.1882,0.0037003993169164306
bus_wefAcLKj,KOVILAMBAKKAM VEERAMANI NAGAR,bus,12.9447,80.1831,0.003697712801144742
bus_659,KOLAPAKKAM,bus,12.549663,80.143925,0.0036943476306561004
bus_DdAJghjk,KOLATHUR SRINIVASA NAGAR,bus,13.11878,80.2065,0.0036897758585235454
bus_682,VENUS,bus,12.549663,80.143925,0.003686039771707211
bus_YpZAWuci,NEELANKARAI,bus,12.94965,80.25475,0.003682511030498324
bus_c5550412bfd3a1f19480598e3d609f0e,KANIMEDU,bus,13.1897,80.15443,0.0036716283013902913
bus_aYSqaQmJ,KK NAGAR TELEPHONE EXCHANGE JAFFARKHANPET,bus,13.03161,80.20943,0.003661725357412808
bus_vHItlPPU,KOMAKKAMBEDU,bus,13.19426,80.02961,0.00365707556339925
metro_210_1,Koyambedu,metro,13.07533116,80.19506616,0.0036568606282735196
bus_JGAJXRSN,KUNDRATHUR ROAD JUNCTION,bus,13.0036,80.09983,0.0036557155398865065
bus_NayUSBAK,SIDCO CANTEEN,bus,13.18283,80.12929,0.0036533369189412765
bus_New301,VALLANOOR SCHOOL,bus,13.15807,80.09926,0.003651866430222607
bus_FCsbIOBe,VIGNESHWARA NAGAR PORUR,bus,13.02812,80.15128,0.0036514214388246673
bus_LVcdwgEp,SIDCO NAGAR,bus,13.10319,80.19904,0.0036467015329546986
bus_dMpYNFzw,JAMIN KORATTUR,bus,13.08142,80.02221,0.0036419434999200094
bus_PgJqeYYy,KAIVELI,bus,12.96395,80.21608,0.003640241662303394
bus_pkhwWQVf,AYYAPPAKKAM CYCLE KADAI,bus,13.09943,80.14856,0.003636983454768773
bus_erxKyHjj,KAVARAPALAYAM,bus,13.11886,80.08622,0.0036351918402989882
suburban_TBMS_P_2,TAMBARAM SANATORIUM,suburban,12.93794896,80.13151066,0.003635084032825687
bus_KnIeolpt,SATYABHAMA UNIVERSITY,bus,12.87195,80.22683,0.0036346930335641016
bus_HymiZyeQ,SAIDAPET MASOODHI ST,bus,13.02041,80.21951,0.0036343396149344804
bus_wDEypHfE,INJAMBAKKAM SAI BABA TEMPLE,bus,12.92751,80.25148,0.0036299240863953254
bus_1676,BHAVANI AMMAN TEMPLE,bus,12.549663,80.143925,0.003625232573924542
bus_IZqJbTkm,PENNALUR EB OFFICE,bus,12.98503,79.97548,0.0036241406215671698
bus_TXAdjSyo,REDHILLS GRAND LINE,bus,13.18582,80.20285,0.0036236570460272447
bus_aunBMooM,CHEMBARAMBAKKAM SARASWATHINAGAR,bus,12.99251,80.06768,0.00362264733881639
bus_cTQVugNT,ADYAR DEPOT,bus,12.99875,80.25603,0.003622606857087238
bus_a646d4c096c86facb29fa8e397567a80,TONDIARPET,bus,13.12715,80.29003,0.0036200123380629246
bus_URvEqJxF,PONNERI BUS DEPOT,bus,13.32919,80.1875,0.003618557313351942
bus_128,NAVALUR,bus,12.549663,80.143925,0.003614403920391629
bus_gQTRJpmv,MEDAVAKKAM VEERABADRA NAGAR,bus,12.90668,80.18901,0.003613057388766797
bus_VfuMcuJJ,SRI RAMAPURAM KANDIGAI,bus,13.29392,80.04739,0.0036061407503834575
bus_1656,KANADASAN NAGAR,bus,12.549663,80.143925,0.0036051670084752984
bus_SOtvIsgL,REDHILLS ALAMARAM,bus,13.19415,80.17467,0.003589646495803189
bus_New358,KAVALCHERY,bus,13.07608,80.06748,0.0035859505081314814
bus_XHnwRtIY,PERAMBUR DON BOSCO SCHOOL,bus,13.12135,80.24254,0.0035853458412353893
bus_niqrIlpR,KMC HOSPITAL,bus,13.07782,80.24418,0.0035787775382194248
bus_euDckIMa,VENGAL COLLEGE,bus,13.26294,80.02621,0.0035765293993655673
bus_bJQxNaqG,KARANAI,bus,12.85873,80.1998,0.0035757994360516307
bus_TCQmGnBb,KANNADAPALAYAM BHARATHI NAGAR,bus,13.14535,80.10458,0.003571257752451684
bus_GtaXwPrK,ANNA NAGAR 12TH MAIN ROAD,bus,13.0852,80.20464,0.003567738898059262
bus_QzSmToFg,ICE FACTORY,bus,12.95409,80.25512,0.0035670267615285525
bus_New245,KOVILPADAGAI PATANI KADAI,bus,13.13976,80.10403,0.003565335482248106
suburban_AJJ_P_1,ARAKKONAM JN.,suburban,13.081652,79.669611,0.003561291383919391
bus_SGVPbDEb,KANDANCHAVADI,bus,12.9669,80.2479,0.003550101015190241
bus_TbetMXoD,KAVANUR,bus,13.181,80.02943,0.0035489359275430463
bus_2605a463592d671f9b6daf5ee9002148,AMBATTUR TI MILLER,bus,13.10388,80.15578,0.0035429449957397113
bus_VRIIzByt,SIDCO OFFICE,bus,13.18432,80.12404,0.0035378526499715043
bus_aWNaUdzp,MADHANANDAPURAM,bus,13.02301,80.14659,0.0035359371698548956
bus_ubzklVlS,NATHAMUNI TALKIES,bus,13.10367,80.2025,0.003531217263984927
bus_XHLHCkqn,KEELKATTALAI,bus,12.95595,80.18699,0.0035278827387486577
bus_CqefHKGq,WOMENS POLYTECHNIC COLLEGE THARAMANI,bus,12.99681,80.24905,0.003524948351979881
bus_lFqTDxEu,KAMARAJ NAGAR,bus,13.10705,80.09414,0.0035197905429460354
bus_RyhuDLev,SEMMANCHERI,bus,12.86052,80.22667,0.00351920876459433
bus_zRaNzOkn,MADANANKUPPAM KORATTUR VILLAGE,bus,13.13545,80.19083,0.003516114218706507
bus_qKwvXMmm,KELAMBAKKAM SCHOOL,bus,12.78572,80.22144,0.0035154584994298204
bus_1292,MANNIVAKKAM K.K.NAGAR,bus,12.549663,80.143925,0.0035126335729658877
bus_YMamRpQR,GEMINI P H,bus,13.05178,80.25017,0.0035091965920179885
bus_SmQHomzq,VADAKARAI,bus,13.1865,80.19981,0.003508172777057473
bus_1842,MADURANDHAGAM,bus,12.549663,80.143925,0.003507903134192493
bus_qBoqSZqr,VILLIVAKKAM ILANKALI AMMAN TEMPLE,bus,13.11247,80.20688,0.003505956172916497
bus_FQOgjaka,THADAPERUMBAKKAM DEVI COLLEGE,bus,13.31576,80.18024,0.0035030730443821705
bus_tZcBjHOF,VADAMADURAI,bus,13.287,80.04214,0.003490656481413686
bus_PjaElYBL,NANDHIVARAM GOVERMENT GIRLS HSC SCHOOL,bus,12.84179,80.06141,0.0034774419082870653
bus_siPRjksc,GANDHI NAGAR REDHILLS,bus,13.19508,80.16819,0.0034741622268334173
bus_vFpuvjcu,MANANCHERI PILLAYAR TEMPLE,bus,12.99805,80.10361,0.003472083731949951
bus_50,ANNA UNIVERSITY,bus,12.549663,80.143925,0.00347179876039515
bus_JVRJClPS,SECRETARY COLONY,bus,13.13558,80.20964,0.0034714580144344087
bus_32,CHROMEPET,bus,12.549663,80.143925,0.003471022531281074
bus_RVEyrwjR,KILAMBAKKAM BUS TERMINUS,bus,12.87412,80.07831,0.0034709987968003946
bus_ULIlEdjB,MADIPAKKAM GANESH NAGAR,bus,12.9617,80.18742,0.0034694825742411523
bus_RmfxCtxh,OTTIYAMBAKKAM,bus,12.86227,80.19132,0.003460315167081859
bus_qeXIqBgp,PALLAVARAM BUS STAND,bus,12.96936,80.15012,0.003458897302887134
bus_MpPYcjVn,BHAKTAVATSALAM MEMORIAL COLLEGE,bus,13.10811,80.18349,0.0034575314942564845
bus_POsNTwnJ,GUINDY HALDA,bus,13.01063,80.22288,0.0034560705853710133
bus_New100,THIRUPORUR BDO OFFICE,bus,12.72037,80.18521,0.003455891425046268
bus_ARQSeSoV,VEL TECH JUNCTION,bus,13.16681,80.09841,0.0034552558278653283
bus_jiBUapiv,PALAVAKKAM,bus,12.96123,80.25613,0.003451542492558781
bus_uSZbdBno,BLUE STAR,bus,13.08502,80.21153,0.003443042208772814
bus_MlpnqsOY,THIRUVALLUR POST OFFICE,bus,13.13186,79.9094,0.00344182603331277
bus_MtINPaKl,PERUNGUDI  I G P,bus,12.97429,80.25039,0.0034346167462204692
bus_mqlWPdpA,VIRUGAMBAKKAM NATESAN NAGAR,bus,13.05762,80.19446,0.0034320208675983
suburban_CJE_P_2,KANCHIPURAM EAST,suburban,12.8405755,79.71222807,0.0034312482006991565
bus_402,Jn.OF P.T.R Rd/KAMARAJ Rd,bus,12.549663,80.143925,0.0034307157992848904
suburban_MSC_P_2,CHENNAI CHETPAT,suburban,13.07441652,80.2436481,0.0034300176328287955
bus_cNWTidvb,RAAKI THEATRE,bus,13.12264,80.14826,0.003427240832201718
bus_wHSBMatn,VYASARPADI SIDCO,bus,13.13157,80.25239,0.0034238619419512764
bus_GEGYzlFG,SIDCO OFFICE,bus,13.18436,80.12404,0.0034223683810017326
bus_vNMxowJX,AMINJIKARAI POLICE STATION,bus,13.0813,80.21783,0.0034222027747878247
bus_lczxXDao,ARAKKAMBAKKAM,bus,13.18053,80.06983,0.003418810036077166
bus_710,AGARAM,bus,12.549663,80.143925,0.003413932918509776
bus_80,K.K.NAGAR,bus,12.549663,80.143925,0.0034136672364062553
bus_fzmnvqlX,NAVALUR AGS COMPLEX,bus,12.85022,80.22668,0.0034107928425681764
bus_WwnuanyA,AMBATTUR RAILWAY STATION,bus,13.11459,80.15455,0.0034083914253046264
